{{"id":450389868326436864,"userId":279723693,"createdAt":"30-mar-2014 23:51:27","inReplyToUserId":565672650,"text":"@eljuarros Vaya par y vaya duo estos dos... skrillex est? que lo rebienta con temazos de su #Recess! BRUTALES!!! #UTRALIVE","userLang":"es","userLocation":"Lleida - Cat "},
{"id":450389872533311488,"userId":495009558,"createdAt":"30-mar-2014 23:51:28","inReplyToUserId":-1,"text":"Lo Apasionado Nunca Es Olvidado","geoLocation":{"latitude":41.3714456,"longitude":2.1220662},"userLang":"es","userLocation":""},
{"id":450389873233776640,"userId":454255061,"createdAt":"30-mar-2014 23:51:28","inReplyToUserId":103452377,"text":"@YellowMellowMG y @Juanmasaurus son puro amor juntos. No deber?an vivir cada uno en una punta de espa?a. Quiero m?s videos de ambos juntos..","geoLocation":{"latitude":41.604114,"longitude":2.0914049},"userLang":"ca","userLocation":"Castellar del Vall?s."},
{"id":450389897996939265,"userId":1230042265,"createdAt":"30-mar-2014 23:51:34","inReplyToUserId":-1,"text":"Donde esta ese para siempre","geoLocation":{"latitude":41.5632491,"longitude":1.9947835},"userLang":"es","userLocation":""},
{"id":450389903839625216,"userId":879058542,"createdAt":"30-mar-2014 23:51:35","inReplyToUserId":-1,"text":"Deje los vicios jane jajajaja que barbaridad","geoLocation":{"latitude":41.4330685,"longitude":2.143353},"userLang":"es","userLocation":""},
{"id":450389917877940224,"userId":1528278042,"createdAt":"30-mar-2014 23:51:38","inReplyToUserId":205575837,"text":"@AbrahamMateoMus Eres ese idolo tan prefecto k buscava yo y cuando te descubri no te quise dejarte ir #AbrahamPremiosJuventud u.u","geoLocation":{"latitude":41.2601468,"longitude":1.7766411},"userLang":"es","userLocation":""},
{"id":450389915969548288,"userId":227110567,"createdAt":"30-mar-2014 23:51:38","inReplyToUserId":20563347,"text":"@mogams Vida privada 28-03-2014. http://t.co/OO5gltffPL @txatxigomez @fmestres @elcepilanansa http://t.co/NtL9Jvi07d","userLang":"es","userLocation":"Vilanova i la Geltr?"},
{"id":450389916661592064,"userId":248747003,"createdAt":"30-mar-2014 23:51:38","inReplyToUserId":-1,"text":"CADA UNO DA LO QUE TIENE http://t.co/xjSJw7CJf7","geoLocation":{"latitude":41.37657536,"longitude":2.16752598},"userLang":"es","userLocation":"Estepa (Sevilla) Espa?a"},
{"id":450389923758374912,"userId":608481766,"createdAt":"30-mar-2014 23:51:40","inReplyToUserId":-1,"text":"???????? ???? http://t.co/njZSOYFtT2","geoLocation":{"latitude":41.39087825,"longitude":2.11153634},"userLang":"ru","userLocation":""},
{"id":450389929403904000,"userId":294866526,"createdAt":"30-mar-2014 23:51:41","inReplyToUserId":294866526,"text":"@MikeEgnor: SKRILLEX \u0026 DIPLO TOGETHER! THIS IS UNBELIEVABLE!!!! #heaven #dubstepdiva #ULTRALIVE #diploinlimbo","geoLocation":{"latitude":41.39701737,"longitude":2.18869605},"userLang":"en","userLocation":"Washington, D.C."},
{"id":450389948433436672,"userId":327363640,"createdAt":"30-mar-2014 23:51:46","inReplyToUserId":247871899,"text":"@narri27 ma?ana quiiiero comentaaar lilililililiiiiiiiiiiiii :) jajajaja te ha molado no?","userLang":"es","userLocation":"Espa?a"},
{"id":450389948961943553,"userId":246452645,"createdAt":"30-mar-2014 23:51:46","inReplyToUserId":728530951,"text":"@Weedshine Aquesta pinta millor. O pots fer una primer i despr?s l\u0027altre.","userLang":"ca","userLocation":"Raval, Pa?sos Catalans"},
{"id":450389949700141056,"userId":595619618,"createdAt":"30-mar-2014 23:51:46","inReplyToUserId":-1,"text":"Jaja \u003d ?","geoLocation":{"latitude":41.5292058,"longitude":1.8507183},"userLang":"ca","userLocation":"Catalunya."},
{"id":450389952367693824,"userId":280602967,"createdAt":"30-mar-2014 23:51:47","inReplyToUserId":197376208,"text":"@millonariorojo Por supuesto, siempre hacia delante!! Buenas noches y que la semana sea propicia. Rock\u0027n\u0027Roll!!!","geoLocation":{"latitude":41.3925934,"longitude":1.9525531},"userLang":"es","userLocation":"Cervell? (Bcn)"},
{"id":450389972131250178,"userId":454255061,"createdAt":"30-mar-2014 23:51:51","inReplyToUserId":-1,"text":"Venga chula..!","geoLocation":{"latitude":41.604114,"longitude":2.0914049},"userLang":"ca","userLocation":"Castellar del Vall?s."},
{"id":450389979471314944,"userId":1020941304,"createdAt":"30-mar-2014 23:51:53","inReplyToUserId":425850360,"text":"@Artemoi Como esta kati , soy LUIS su compa?ero , que nos estamos sacando el carnet de conducir en la auto Dal? de hospitalet ,","geoLocation":{"latitude":41.353623,"longitude":2.0741549},"userLang":"es","userLocation":""},
{"id":450389979500670976,"userId":908941500,"createdAt":"30-mar-2014 23:51:53","inReplyToUserId":146514886,"text":"@eprendedor tu ets gallegui?o :)","geoLocation":{"latitude":41.2172888,"longitude":1.7296294},"userLang":"ca","userLocation":"Vilanova i la Geltr?"},
{"id":450389989415993344,"userId":1401021037,"createdAt":"30-mar-2014 23:51:55","inReplyToUserId":-1,"text":"#cuartomilenio si el avi?n americano era tan poco fiable pq cojones pasa por el tri?ngulo de las bermudas.","userLang":"es","userLocation":"  barcelona - Spain"},
{"id":450389990112260097,"userId":1528278042,"createdAt":"30-mar-2014 23:51:56","inReplyToUserId":205575837,"text":"@AbrahamMateoMus Eres ese idolo tan prefecto k buscava yo y cuando te descubri no te quise dejarte ir #AbrahamPremiosJuventud kcm","geoLocation":{"latitude":41.2601386,"longitude":1.776636},"userLang":"es","userLocation":""},
{"id":450390016150491137,"userId":1384110594,"createdAt":"30-mar-2014 23:52:02","inReplyToUserId":-1,"text":"S?n tres quarts i mig de dotze de la nit","geoLocation":{"latitude":41.545639,"longitude":1.893817},"userLang":"ca","userLocation":"Olesa de Montserrat"},
{"id":450390017748504576,"userId":342318343,"createdAt":"30-mar-2014 23:52:02","inReplyToUserId":-1,"text":"Primero habla con las otras y desp?es me contesta a mi, cuando se acuerda","userLang":"es","userLocation":"Concordia Entre Rios"},
{"id":450390018704801792,"userId":227110567,"createdAt":"30-mar-2014 23:52:02","inReplyToUserId":217733872,"text":"@juliacreus Vida privada 28-03-2014. http://t.co/OO5gltffPL @txatxigomez @fmestres @elcepilanansa http://t.co/NtL9Jvi07d","userLang":"es","userLocation":"Vilanova i la Geltr?"},
{"id":450390030704730112,"userId":191483307,"createdAt":"30-mar-2014 23:52:05","inReplyToUserId":551659670,"text":"Primaries Bcn, proces participatiu i impecable, 70 % dels votans ciutadans NO militans, @MxCastelldefels @PSCastelldefels","geoLocation":{"latitude":41.26650359,"longitude":1.97573477},"userLang":"en","userLocation":"Castelldefels"},
{"id":450390040456482816,"userId":294866526,"createdAt":"30-mar-2014 23:52:08","inReplyToUserId":-1,"text":"SKRILLEX \u0026 DIPLO TOGETHER! THIS IS UNBELIEVABLE!!!! #heaven #dubstepdiva #ULTRALIVE #diploinlimbo","geoLocation":{"latitude":41.39700701,"longitude":2.18872644},"userLang":"en","userLocation":"Washington, D.C."},
{"id":450390044352987136,"userId":362406203,"createdAt":"30-mar-2014 23:52:09","inReplyToUserId":-1,"text":"Exemple de no saber perdre... \"El PSC desestima la impugnaci? de les prim?ries presentada per Jordi Mart?\" http://t.co/MBctIUsubm","geoLocation":{"latitude":41.37316584,"longitude":2.0706316},"userLang":"es","userLocation":"Barcelona"},
{"id":450390051139366912,"userId":1575999300,"createdAt":"30-mar-2014 23:52:10","inReplyToUserId":-1,"text":"NUEVO ATRACO AL GRANDIOSO SPORTING DE GIJON EL PRIMER GOL FUERA DE JUEGO Y EL SEGUNDO MENUDO PENALTI ASI ES IMPOSIBLE PERO NUNCA NS RENDIMOS","userLang":"es","userLocation":""},
{"id":450390057153990657,"userId":317904166,"createdAt":"30-mar-2014 23:52:12","inReplyToUserId":1120160888,"text":"@jesus83048674 @185RosaLopez @carmen_fabra_ \nRosa a mi tb se me cae de verte","geoLocation":{"latitude":41.46378009,"longitude":2.08477796},"userLang":"es","userLocation":""},
{"id":450390063424483328,"userId":282343359,"createdAt":"30-mar-2014 23:52:13","inReplyToUserId":-1,"text":"La mejor sensaci?n del mundo es ver sonre?r a alguien y saber que eres el motivo de su sonrisa.","userLang":"es","userLocation":"Moj?car-Barcelona"},
{"id":450390065286770688,"userId":615506078,"createdAt":"30-mar-2014 23:52:14","inReplyToUserId":-1,"text":"Also, ate handsomely compared to the gastronomic disaster last night.","geoLocation":{"latitude":41.37974298,"longitude":2.1740513},"userLang":"en","userLocation":"Knutsford | Manchester "},
{"id":450390073142702080,"userId":486762622,"createdAt":"30-mar-2014 23:52:15","inReplyToUserId":470087605,"text":"@jmurciav @EscofetAlbert pura escoria","geoLocation":{"latitude":41.35871657,"longitude":2.0785311},"userLang":"es","userLocation":"Catalunya | Norge | Deutchland"},
{"id":450390073520168961,"userId":212327978,"createdAt":"30-mar-2014 23:52:16","inReplyToUserId":-1,"text":"Ojal? yo de vacaciones o algo as? \u003e\u003e\u003e","geoLocation":{"latitude":41.44737716,"longitude":2.17464823},"userLang":"es","userLocation":"Barcelona"},
{"id":450390081661317120,"userId":1230042265,"createdAt":"30-mar-2014 23:52:17","inReplyToUserId":-1,"text":"Hace me arripiento de la mierda que sembre pero otras veces suelo agradecerlo","geoLocation":{"latitude":41.5632553,"longitude":1.9947881},"userLang":"es","userLocation":""},
{"id":450390085947895809,"userId":279003518,"createdAt":"30-mar-2014 23:52:18","inReplyToUserId":60733171,"text":"@manedelaparra teee quierooo mi mexicano preferidoo, mil besoosss!!!","userLang":"es","userLocation":"M?laga ( Andaluc?a, Espa?a)"},
{"id":450390088204451840,"userId":1622247396,"createdAt":"30-mar-2014 23:52:19","inReplyToUserId":-1,"text":"Jajajaa Siempre se quedaron sin nafta y mas con nosotros jaja","userLang":"es","userLocation":""},
{"id":450390096806940672,"userId":2428993467,"createdAt":"30-mar-2014 23:52:21","inReplyToUserId":-1,"text":"Este a?o hacemos otra vez playa off y ojala como primeros..... Campe?n...suerte en vecindario......","geoLocation":{"latitude":41.2689973,"longitude":1.9973936},"userLang":"es","userLocation":"castelldefels"},
{"id":450390096479813632,"userId":1565195281,"createdAt":"30-mar-2014 23:52:21","inReplyToUserId":401495432,"text":"@JuanraGil1 ???Gracias por seguirme. Me gustaria explicarte el proyecto. Las ayudas seran para sanida, disc, anc, http://t.co/66N3DNkDiM","geoLocation":{"latitude":41.82332548,"longitude":1.8963478},"userLang":"es","userLocation":"Barcelona616 71 84 64"},
{"id":450390134899617792,"userId":247563447,"createdAt":"30-mar-2014 23:52:30","inReplyToUserId":-1,"text":"Faaaaaaaaart d\u0027aquests MIGDIES repetitius i incombustibles i d \u0027Ara ja fa 4 mesos q el meu germ? no ?s a casa\u0027! Q pesats MARCILLA i FREE! xD","geoLocation":{"latitude":41.51484876,"longitude":1.90217055},"userLang":"es","userLocation":""},
{"id":450390137017745408,"userId":2364008862,"createdAt":"30-mar-2014 23:52:31","inReplyToUserId":-1,"text":"LIFE IN COLOURS   http://t.co/ytr8YMA6sj","userLang":"es","userLocation":""},
{"id":450390143611195392,"userId":628625902,"createdAt":"30-mar-2014 23:52:32","inReplyToUserId":-1,"text":"Una mami bella parece una doncella ?","geoLocation":{"latitude":41.4437043,"longitude":1.9796203},"userLang":"es","userLocation":"Spain \u0026 Germany"},
{"id":450390143690895360,"userId":242511903,"createdAt":"30-mar-2014 23:52:32","inReplyToUserId":-1,"text":"?Celebraciones agotadoras? A ver si aterrizaron en una boda gitana #CuartoMilenio","geoLocation":{"latitude":41.3766178,"longitude":2.1720708},"userLang":"es","userLocation":"Ravalkist?n (Barcelona) "},
{"id":450390180084854784,"userId":1009644396,"createdAt":"30-mar-2014 23:52:41","inReplyToUserId":-1,"text":"Bona nit??","geoLocation":{"latitude":41.36102769,"longitude":2.10608714},"userLang":"es","userLocation":"Hospitalet de Llobregat,BCN"},
{"id":450390184262402048,"userId":95927604,"createdAt":"30-mar-2014 23:52:42","inReplyToUserId":2348599262,"text":"@empaticon \nNo podemos tirar pelotas fuera.\nLos pol?ticos existentes viven de las papeletas. Sin votos no son nada.\nLa clave es el pueblo","geoLocation":{"latitude":41.27925534,"longitude":1.97539798},"userLang":"en","userLocation":"Castelldefels and Phx"},
{"id":450390187198390273,"userId":1377151987,"createdAt":"30-mar-2014 23:52:43","inReplyToUserId":861429128,"text":"@christianmolrod Jajajaja inss qe capullo :D","userLang":"es","userLocation":"VEJER DE LA FRA "},
{"id":450390188704169985,"userId":257576045,"createdAt":"30-mar-2014 23:52:43","inReplyToUserId":-1,"text":"Ravent?s i Blanc Gran Reserva Personal 2000. Armonizado con peras a la crema de vino.  @RaventosiBlanc http://t.co/dRYgrkSGO8","geoLocation":{"latitude":41.4341556,"longitude":1.795197},"userLang":"es","userLocation":"Barcelona. Espa?a"},
{"id":450390189756932096,"userId":797881740,"createdAt":"30-mar-2014 23:52:43","inReplyToUserId":258005059,"text":"@KarencitaaPR que guapos tus padres. Saludos.","geoLocation":{"latitude":41.4012458,"longitude":2.1267724},"userLang":"es","userLocation":""},
{"id":450390193854771201,"userId":1544294910,"createdAt":"30-mar-2014 23:52:44","inReplyToUserId":-1,"text":"Locos por la plata, cegados por el hash","geoLocation":{"latitude":41.44675245,"longitude":2.23877459},"userLang":"es","userLocation":"Badalona, Barcelona. "},
{"id":450390245788647424,"userId":248141670,"createdAt":"30-mar-2014 23:52:57","inReplyToUserId":94900238,"text":"@LuceroMexico @drmetranquilomx Calme Fondation du sommeil - Institut national de neurologie / Je soutiens ?galement cette cause!","userLang":"fr","userLocation":"ALGER???TIZI OUZOU???"},
{"id":450390259130724352,"userId":588936904,"createdAt":"30-mar-2014 23:53:00","inReplyToUserId":258127235,"text":"@sayornitorrinco se pueden obtener conocimientos por otros medios, la verdad :)","userLang":"es","userLocation":"Barcelona"},
{"id":450390264759455744,"userId":551330675,"createdAt":"30-mar-2014 23:53:01","inReplyToUserId":-1,"text":"El meu llit??","geoLocation":{"latitude":41.539166,"longitude":2.0959974},"userLang":"ca","userLocation":"Sabadell."},
{"id":450390268626612224,"userId":472091262,"createdAt":"30-mar-2014 23:53:02","inReplyToUserId":-1,"text":"Biri sniperla vursun ?unu ak","userLang":"tr","userLocation":"istanbul"},
{"id":450390271185141762,"userId":615506078,"createdAt":"30-mar-2014 23:53:03","inReplyToUserId":-1,"text":"And, double Brucie bonus, I didn\u0027t get propositioned by any ladies of the night tonight.","geoLocation":{"latitude":41.37977132,"longitude":2.17402049},"userLang":"en","userLocation":"Knutsford | Manchester "},
{"id":450390300360708096,"userId":260383368,"createdAt":"30-mar-2014 23:53:10","inReplyToUserId":501733800,"text":"@JordiRomagosaFr hahahahahahaha. Tot? Jo hi era al camp i no ho cantava ni un 5%, penos es el teu calcul matematic. #fest\u0027homirar","geoLocation":{"latitude":41.35047863,"longitude":2.03278061},"userLang":"ca","userLocation":"Sant Boi de Llobregat"},
{"id":450390303103799296,"userId":1547049247,"createdAt":"30-mar-2014 23:53:10","inReplyToUserId":-1,"text":"La m?s clara del partido la tuvo #Riquelme","userLang":"en-gb","userLocation":"Barcelona"},
{"id":450390334590451712,"userId":363322696,"createdAt":"30-mar-2014 23:53:18","inReplyToUserId":1276139618,"text":"@Colonos_Cs @Quimkong @jordi_canyas @lasegonahora ?NIMS ?NIMS QUIM!!","geoLocation":{"latitude":41.42779485,"longitude":2.16945649},"userLang":"es","userLocation":"Barcelona - Catalunya"},
{"id":450390341112594432,"userId":908941500,"createdAt":"30-mar-2014 23:53:19","inReplyToUserId":146514886,"text":"@eprendedor voil?!","geoLocation":{"latitude":41.2172452,"longitude":1.7295951},"userLang":"ca","userLocation":"Vilanova i la Geltr?"},
{"id":450390388587909120,"userId":1528278042,"createdAt":"30-mar-2014 23:53:31","inReplyToUserId":205575837,"text":"@AbrahamMateoMus eres ese Angel de la guardia k me protege y me hace feliz. Gracias por todo.Tqm  #AbrahamPremiosJuventud g","geoLocation":{"latitude":41.2601182,"longitude":1.7766362},"userLang":"es","userLocation":""},
{"id":450390389405782017,"userId":95927604,"createdAt":"30-mar-2014 23:53:31","inReplyToUserId":157815835,"text":"@joelarbones @antrom71 \nPer?","geoLocation":{"latitude":41.27915498,"longitude":1.97539433},"userLang":"en","userLocation":"Castelldefels and Phx"},
{"id":450390405587415040,"userId":469479696,"createdAt":"30-mar-2014 23:53:35","inReplyToUserId":-1,"text":"Descubriendo el cocktail bar Boca Chica y el restaurante Boca Grande de Barcelona. Merece mucho la pena la visita!!","geoLocation":{"latitude":41.39459188,"longitude":2.16418147},"userLang":"es","userLocation":"Logro?o/Madrid"},
{"id":450390407076409345,"userId":632132580,"createdAt":"30-mar-2014 23:53:35","inReplyToUserId":-1,"text":"El chaval por las noches se inspira xddd","geoLocation":{"latitude":41.53970583,"longitude":1.89498259},"userLang":"es","userLocation":"Barcelona,Olesa de Montserrat"},
{"id":450390406677942272,"userId":219120159,"createdAt":"30-mar-2014 23:53:35","inReplyToUserId":999921421,"text":"@CarmPleite @Plaza1madrid @parraprieto63 @ara_G_G @calasparrena @migueldelpuce @Yolanda_Roelas hasta ma?ana Emi y familia guaaaapa! Muuakk!","geoLocation":{"latitude":41.40782118,"longitude":2.18210759},"userLang":"es","userLocation":""},
{"id":450390422041686016,"userId":279003518,"createdAt":"30-mar-2014 23:53:39","inReplyToUserId":942511794,"text":"@iYaneth2 @ApoyandoaMane @manedelaparra es ?nico!!!","userLang":"es","userLocation":"M?laga ( Andaluc?a, Espa?a)"},
{"id":450390426756087808,"userId":280647767,"createdAt":"30-mar-2014 23:53:40","inReplyToUserId":-1,"text":"Ahora mismo huelo tan bien que me follaba a mi misma.","geoLocation":{"latitude":41.3878671,"longitude":2.141534},"userLang":"es","userLocation":"Barcelona city bro."},
{"id":450390525649387520,"userId":280647767,"createdAt":"30-mar-2014 23:54:03","inReplyToUserId":-1,"text":"JAJAJAJAJAJAJA ocno.","geoLocation":{"latitude":41.3878633,"longitude":2.1415419},"userLang":"es","userLocation":"Barcelona city bro."},
{"id":450390534029598720,"userId":196104095,"createdAt":"30-mar-2014 23:54:05","inReplyToUserId":-1,"text":"Viendo \"El diario de Bridget Jones\"! creo que tengo necesidad de verla :S","geoLocation":{"latitude":41.3870848,"longitude":2.15660564},"userLang":"es","userLocation":"Barcelona - Donosti"},
{"id":450390542497886208,"userId":615506078,"createdAt":"30-mar-2014 23:54:07","inReplyToUserId":-1,"text":"Clearly I have perfected the art of Gay, Spanish style.","geoLocation":{"latitude":41.37973249,"longitude":2.17399083},"userLang":"en","userLocation":"Knutsford | Manchester "},
{"id":450390553776390144,"userId":606312576,"createdAt":"30-mar-2014 23:54:10","inReplyToUserId":173541298,"text":"@jordi_canyas @davidberga @JordiGraupera T? igual hablas en franc?s, que en ingl?s, que te lo inventas.","geoLocation":{"latitude":41.3782239,"longitude":2.0954376},"userLang":"es","userLocation":""},
{"id":450390564576694272,"userId":243174151,"createdAt":"30-mar-2014 23:54:13","inReplyToUserId":1676307210,"text":"@Tribuna97 se puede pensar en la EL pero sin olvidar que aun no hemos certificado la permanencia y viendo como corren por el campo en Liga..","geoLocation":{"latitude":41.4389631,"longitude":2.2313764},"userLang":"es","userLocation":"Badalona"},
{"id":450390575267983360,"userId":78871654,"createdAt":"30-mar-2014 23:54:15","inReplyToUserId":-1,"text":"Algunos ex-liga BBVA en el Boca-River: Riquelme, Gago, Cata D?az y... Forl?n!!!! La concha, menudo quilombo!!!! \u003d] #S?perCl?sico","geoLocation":{"latitude":41.410131,"longitude":2.1818836},"userLang":"es","userLocation":"Barcelona"},
{"id":450390597770440706,"userId":1339816290,"createdAt":"30-mar-2014 23:54:21","inReplyToUserId":-1,"text":"applause applause vyqej kdsnalqefwjqwe applause\n\nif you know what i mean","userLang":"en-gb","userLocation":"Stuck in the Moment"},
{"id":450390601549488128,"userId":245415060,"createdAt":"30-mar-2014 23:54:21","inReplyToUserId":-1,"text":"yo no entiendo a la gente jajaja","userLang":"es","userLocation":"Cobisa"},
{"id":450390604942675968,"userId":632132580,"createdAt":"30-mar-2014 23:54:22","inReplyToUserId":-1,"text":"Aqui cada uno va por su camino dicee madremia xdd","geoLocation":{"latitude":41.5396978,"longitude":1.89496647},"userLang":"es","userLocation":"Barcelona,Olesa de Montserrat"},
{"id":450390616766435328,"userId":95927604,"createdAt":"30-mar-2014 23:54:25","inReplyToUserId":339434329,"text":"@davidOlmedoH @PENITENCIAGITE1 @RamonCarner @tonicantona @LluisBassas \nT\u0027ho pregunto perqu? s\u0027ha reunit amb Mas aquesta setmana","geoLocation":{"latitude":41.27915498,"longitude":1.97539433},"userLang":"en","userLocation":"Castelldefels and Phx"},
{"id":450390617009684480,"userId":42820419,"createdAt":"30-mar-2014 23:54:25","inReplyToUserId":-1,"text":"JackU ???? #ULTRALIVE","geoLocation":{"latitude":41.3801944,"longitude":2.16063336},"userLang":"en","userLocation":""},
{"id":450390625729658880,"userId":615506078,"createdAt":"30-mar-2014 23:54:27","inReplyToUserId":-1,"text":"Maybe this city isn\u0027t that bad after all","geoLocation":{"latitude":41.37974397,"longitude":2.1740555},"userLang":"en","userLocation":"Knutsford | Manchester "},
{"id":450390634298617856,"userId":187195257,"createdAt":"30-mar-2014 23:54:29","inReplyToUserId":345139782,"text":"@stephieduf who r you?","geoLocation":{"latitude":41.38602975,"longitude":2.15960791},"userLang":"en","userLocation":"NJ/AZ to Barcelona, Spain"},
{"id":450390637050077184,"userId":257535758,"createdAt":"30-mar-2014 23:54:30","inReplyToUserId":499180366,"text":"@dianamorena1 no jodas... a l\u0027asignatura fea?? A mi m\u0027agradava parlant de Lost in Translation....","userLang":"es","userLocation":"Barcelona"},
{"id":450390635586269184,"userId":540896475,"createdAt":"30-mar-2014 23:54:30","inReplyToUserId":540896475,"text":"@nunu_bcn y el momentazo... -\"Se ha lavado las manos?\" - Enhorabuena! XDDDDD os lo perdisteis, fue brutal!!!!","geoLocation":{"latitude":41.4205067,"longitude":2.1903904},"userLang":"es","userLocation":"Barcelona"},
{"id":450390643127640064,"userId":247563447,"createdAt":"30-mar-2014 23:54:31","inReplyToUserId":-1,"text":"Faaaaaaaaart d\u0027aquests MIGDIES repetitius i incombustibles i d \u0027Ara ja fa 4 mesos q el meu germ? no ?s a casa\u0027! Q pesats DAMM i MARCILLA! xD","geoLocation":{"latitude":41.51497496,"longitude":1.90215323},"userLang":"es","userLocation":""},
{"id":450390673733468160,"userId":197575128,"createdAt":"30-mar-2014 23:54:39","inReplyToUserId":-1,"text":"? guapos!! @ Residencia Melon District Marina http://t.co/WZFu2yRaiF","geoLocation":{"latitude":41.39731447,"longitude":2.18841434},"userLang":"es","userLocation":"Lloret de Mar - Barcelona"},
{"id":450390676161978368,"userId":1253064282,"createdAt":"30-mar-2014 23:54:39","inReplyToUserId":-1,"text":"NUNCA!!!!\nRENDIRSE??? que es eso??\n@PanricoBcn  no tiene esa definici?n en el diccionario!! http://t.co/6vLHNNjgiJ","geoLocation":{"latitude":41.5361419,"longitude":2.1206957},"userLang":"es","userLocation":""},
{"id":450390687935369216,"userId":280647767,"createdAt":"30-mar-2014 23:54:42","inReplyToUserId":-1,"text":"VIVAN LOS PACKS DE GEL DE DUCHA, CREMA HIDRATANTE Y PERFUME DEL MERCADONAAAA.","geoLocation":{"latitude":41.3878633,"longitude":2.1415419},"userLang":"es","userLocation":"Barcelona city bro."},
{"id":450390699859804160,"userId":2294099470,"createdAt":"30-mar-2014 23:54:45","inReplyToUserId":-1,"text":"Buenas noches mis guapetones @_jesus_0M \u0026\n@DanieloviedoM http://t.co/GovtlftXbx","geoLocation":{"latitude":41.4470849,"longitude":2.2146517},"userLang":"es","userLocation":""},
{"id":450390702221197315,"userId":1684381436,"createdAt":"30-mar-2014 23:54:45","inReplyToUserId":156290107,"text":"@Pep_119 es que al final uno se cabrea con tanta tonter?a t?o","geoLocation":{"latitude":41.37163875,"longitude":2.08339717},"userLang":"es","userLocation":"Barcelona"},
{"id":450390722009899010,"userId":1304569848,"createdAt":"30-mar-2014 23:54:50","inReplyToUserId":-1,"text":".@fjavilopez amb el nostre candidat com? @MartinSchulz avui a Madrid #canviemEuropa #VenATuEquipo #EP2014 @PES_PSE http://t.co/8idM2HVLA1","geoLocation":{"latitude":41.408788,"longitude":2.1607305},"userLang":"es","userLocation":"Catalunya"},
{"id":450390736736116736,"userId":595619618,"createdAt":"30-mar-2014 23:54:54","inReplyToUserId":-1,"text":"\"Hola jaja\"\n?Qu? hay de gracioso en un hola? Y si no pones \u0027jaja\u0027 eres borde...","geoLocation":{"latitude":41.5292066,"longitude":1.8507178},"userLang":"ca","userLocation":"Catalunya."},
{"id":450390748505321472,"userId":54535299,"createdAt":"30-mar-2014 23:54:56","inReplyToUserId":272113175,"text":"@QuinManso @JosepLDT @Lultimsegador @enrnavdom @NousCatalans En @khalidshabaz em diu q cartell en urd? ?s nom?s propaganda d @jaumecollboni","geoLocation":{"latitude":41.44990256,"longitude":2.21033158},"userLang":"ca","userLocation":"Santa Coloma de Gramenet"},
{"id":450390770714157056,"userId":1384110594,"createdAt":"30-mar-2014 23:55:02","inReplyToUserId":-1,"text":"Falten cinc minuts per a les dotze de la nit","geoLocation":{"latitude":41.545639,"longitude":1.893817},"userLang":"ca","userLocation":"Olesa de Montserrat"},
{"id":450390779991949313,"userId":632132580,"createdAt":"30-mar-2014 23:55:04","inReplyToUserId":-1,"text":"Buuuueno pueh na a la shiit todo poco le importara si me habla asi","geoLocation":{"latitude":41.53969049,"longitude":1.89509793},"userLang":"es","userLocation":"Barcelona,Olesa de Montserrat"},
{"id":450390788296687616,"userId":187195257,"createdAt":"30-mar-2014 23:55:06","inReplyToUserId":345139782,"text":"@stephieduf wrong answer","geoLocation":{"latitude":41.38600667,"longitude":2.15961369},"userLang":"en","userLocation":"NJ/AZ to Barcelona, Spain"},
{"id":450390800988651520,"userId":282607128,"createdAt":"30-mar-2014 23:55:09","inReplyToUserId":1191191106,"text":"@Stephensdisplay hahahha the famous quote! Ya we\u0027ll defiantly have a few beers that weekend alright","geoLocation":{"latitude":41.38287591,"longitude":2.16436518},"userLang":"en","userLocation":"Cork, Ireland"},
{"id":450390826481627136,"userId":2174483564,"createdAt":"30-mar-2014 23:55:15","inReplyToUserId":11990212,"text":".@jbadenes @Adria34 @MiquelFernandez  Sabeu q passa? el PSC t? molt mala pe?a al teler, fixat\u0027hi amb els comentaris d @AdaColau Ja no cola!","userLang":"ca","userLocation":"Catalunya"},
{"id":450390826867511296,"userId":559838079,"createdAt":"30-mar-2014 23:55:15","inReplyToUserId":-1,"text":"?FREAK! ?EL PUTO TRACK DEL A?O! #UltraSpain","userLang":"es","userLocation":"BCN"},
{"id":450390836107546624,"userId":1975619018,"createdAt":"30-mar-2014 23:55:17","inReplyToUserId":71266682,"text":"@antoniorozco siempre lo das todo en cada escenario hasta quedarte sin voz!!","geoLocation":{"latitude":41.6126043,"longitude":2.2717802},"userLang":"es","userLocation":"Ballerina?"},
{"id":450390843309182976,"userId":445460963,"createdAt":"30-mar-2014 23:55:19","inReplyToUserId":-1,"text":"Con lo que me gusta #CuartoMilenio y la de interrupciones por anuncios que hacen. No dejan que te enganches a las historias.","geoLocation":{"latitude":41.4552883,"longitude":2.250204},"userLang":"es","userLocation":"Badalona,Barcelona,Espa?a"},
{"id":450390852930904064,"userId":197495302,"createdAt":"30-mar-2014 23:55:21","inReplyToUserId":-1,"text":"Me he llenado todas las bambas de barro :) :) :) :)","userLang":"es","userLocation":"Barcelona."},
{"id":450390856101806080,"userId":789669546,"createdAt":"30-mar-2014 23:55:22","inReplyToUserId":-1,"text":"Buenas noches \u003c3333333 xd","userLang":"es","userLocation":"EN CORAZON DE RAI."},
{"id":450390879933845505,"userId":486762622,"createdAt":"30-mar-2014 23:55:28","inReplyToUserId":95927604,"text":"@ericcatalunya @davidOlmedoH @PENITENCIAGITE1 @RamonCarner @tonicantona @LluisBassas han convertit el poder del vot en ef?mer i segrestat","geoLocation":{"latitude":41.35871841,"longitude":2.07856069},"userLang":"es","userLocation":"Catalunya | Norge | Deutchland"},
{"id":450390886716030976,"userId":917663282,"createdAt":"30-mar-2014 23:55:29","inReplyToUserId":183569034,"text":"@pepe_1949 @Tomasimedia Alguna que otra denuncia falsa se dar?. Si es as? ?El denunciado es culpable hasta que no se demuestra su inocencia?","geoLocation":{"latitude":41.5487726,"longitude":2.10599522},"userLang":"es","userLocation":""},
{"id":450390885180923904,"userId":24293995,"createdAt":"30-mar-2014 23:55:29","inReplyToUserId":33480672,"text":"@Mr_Increible de placer?","geoLocation":{"latitude":41.41083634,"longitude":2.178492},"userLang":"en","userLocation":""},
{"id":450390893024251904,"userId":383234535,"createdAt":"30-mar-2014 23:55:31","inReplyToUserId":999397303,"text":"?@AprendeHistoria: Fotos de Kim Jong-Un junto a un F-7 http://t.co/bDpORMBVTX? @norcoreano un par de fotillos suyas amado l?der","geoLocation":{"latitude":41.41503062,"longitude":2.18172731},"userLang":"es","userLocation":"Barcelona"},
{"id":450390894395817984,"userId":30042212,"createdAt":"30-mar-2014 23:55:31","inReplyToUserId":-1,"text":"I\u0027m at @Barcelona_cat (Barcelona) w/ 7 others http://t.co/BhojjKnGqQ","geoLocation":{"latitude":41.38827174,"longitude":2.16997147},"userLang":"en","userLocation":"Barcelona - Spain"},
{"id":450390892894240768,"userId":632132580,"createdAt":"30-mar-2014 23:55:31","inReplyToUserId":-1,"text":"De todas maneras sigo queriendo un puto NOVIO","geoLocation":{"latitude":41.53966905,"longitude":1.89491422},"userLang":"es","userLocation":"Barcelona,Olesa de Montserrat"},
{"id":450390905925935104,"userId":42820419,"createdAt":"30-mar-2014 23:55:34","inReplyToUserId":-1,"text":"Skrillex is dominating 2014 already","geoLocation":{"latitude":41.38021159,"longitude":2.16048578},"userLang":"en","userLocation":""},
{"id":450390918185906176,"userId":1684381436,"createdAt":"30-mar-2014 23:55:37","inReplyToUserId":156290107,"text":"@Pep_119 me voy a dormir t?o vv naniiit!","geoLocation":{"latitude":41.37163875,"longitude":2.08339717},"userLang":"es","userLocation":"Barcelona"},
{"id":450390924900974592,"userId":717021594,"createdAt":"30-mar-2014 23:55:39","inReplyToUserId":-1,"text":"Jessic Cree qq Yo soy Tonta??","geoLocation":{"latitude":41.48982713,"longitude":2.14743648},"userLang":"es","userLocation":"POETA CALLEJERO?"},
{"id":450390934526521344,"userId":279533575,"createdAt":"30-mar-2014 23:55:41","inReplyToUserId":593147800,"text":"@Ricardo67820451 @atilavive @amparoab @_Shergiock_ @Gasparlopezmon as? nos va!","geoLocation":{"latitude":41.4699659,"longitude":2.0844274},"userLang":"es","userLocation":"St Cugat del Valles, Barcelona"},
{"id":450390947252420608,"userId":1020941304,"createdAt":"30-mar-2014 23:55:44","inReplyToUserId":-1,"text":"#artemoi  moi eres unos de los mejores jugadores de nuestro RCD Espanyol , un saludo y mucho abrazo para los dos , visca l, Espanyol .","geoLocation":{"latitude":41.35363438,"longitude":2.07421212},"userLang":"es","userLocation":""},
{"id":450390950398152705,"userId":1446725952,"createdAt":"30-mar-2014 23:55:45","inReplyToUserId":289923144,"text":"@ImYourDaniel @asdfghjillianne @memriesh yes ate... sobrang kinabahan kami lahat, nanalalamig na nga eh ??","geoLocation":{"latitude":41.4026804,"longitude":2.1797259},"userLang":"en","userLocation":""},
{"id":450390952369463296,"userId":2324490110,"createdAt":"30-mar-2014 23:55:45","inReplyToUserId":-1,"text":"Los muertos del Trap pero que guapo est? carajooo!!!","userLang":"es","userLocation":""},
{"id":450390979447898113,"userId":1422578894,"createdAt":"30-mar-2014 23:55:52","inReplyToUserId":2302372581,"text":"@TheXk05 sisi","userLang":"es","userLocation":""},
{"id":450390984376197120,"userId":404702429,"createdAt":"30-mar-2014 23:55:53","inReplyToUserId":1009413324,"text":"@GerardMartu @pelluki @TitoSenisa los mejores!!! que arribi ja el bm platja......","geoLocation":{"latitude":41.41637042,"longitude":2.18629672},"userLang":"es","userLocation":"Barcelona"},
{"id":450390988251758592,"userId":454255061,"createdAt":"30-mar-2014 23:55:54","inReplyToUserId":-1,"text":"Arsaa.","geoLocation":{"latitude":41.604114,"longitude":2.0914049},"userLang":"ca","userLocation":"Castellar del Vall?s."},
{"id":450391001547689985,"userId":280647767,"createdAt":"30-mar-2014 23:55:57","inReplyToUserId":-1,"text":"Enserio, estoy oliendo mis hombros y OJJJJJ.","geoLocation":{"latitude":41.3879461,"longitude":2.1415054},"userLang":"es","userLocation":"Barcelona city bro."},
{"id":450391003070205953,"userId":1230042265,"createdAt":"30-mar-2014 23:55:57","inReplyToUserId":-1,"text":"The music is my life the lyrics is my story","geoLocation":{"latitude":41.5632739,"longitude":1.9949016},"userLang":"es","userLocation":""},
{"id":450391013488488449,"userId":578291954,"createdAt":"30-mar-2014 23:56:00","inReplyToUserId":-1,"text":"Deveria de plantearme ver los 6 caps de naruto que no he visto...","userLang":"es","userLocation":"En la suela de mi zapato"},
{"id":450391020707258368,"userId":57771835,"createdAt":"30-mar-2014 23:56:01","inReplyToUserId":48826739,"text":"@JonnyDerbyshire everyone http://t.co/5yNsnCcb8y","geoLocation":{"latitude":41.39789629,"longitude":2.14729105},"userLang":"en","userLocation":"Worldwide"},
{"id":450391022288535553,"userId":1334456209,"createdAt":"30-mar-2014 23:56:02","inReplyToUserId":815386428,"text":"@JuakaLashnikov  te..pego(?) en verdad no ;_;","userLang":"es","userLocation":""},
{"id":450391032224829441,"userId":283013370,"createdAt":"30-mar-2014 23:56:04","inReplyToUserId":-1,"text":"DEORRO SIEMPRE EN ULTRA! #ULTRALIVE","userLang":"es","userLocation":"Barcelona,Spain"},
{"id":450391032212230144,"userId":1554196626,"createdAt":"30-mar-2014 23:56:04","inReplyToUserId":-1,"text":"#Onelove en ADICB con Mapuxesound  que no pare la musiic!! #jaaaahhmmann @ ADICB coffee shop http://t.co/8th1LM53hl","geoLocation":{"latitude":41.379663,"longitude":2.172455},"userLang":"es","userLocation":"Barcelona"},
{"id":450391033264603136,"userId":843233724,"createdAt":"30-mar-2014 23:56:04","inReplyToUserId":-1,"text":"????? \"?????\" ?? ????? ???? ?? ??????? ????? ?????? ?? ???? ????? ???? ????? ???????? ??????? ???? ????? ??????? ??????.","userLang":"ar","userLocation":"algeria"},
{"id":450391038788919297,"userId":270304832,"createdAt":"30-mar-2014 23:56:06","inReplyToUserId":236015023,"text":"@ShayPicapiedra D: no lo hab?a pensado as?.","userLang":"es","userLocation":"\u0027Muy MUY CAPACITADOS.\u0027 db?"},
{"id":450391039858462720,"userId":1372958599,"createdAt":"30-mar-2014 23:56:06","inReplyToUserId":-1,"text":"Buenas noches :D","geoLocation":{"latitude":41.5528338,"longitude":2.2645004},"userLang":"es","userLocation":"Terabithia, Barcelona."},
{"id":450391042517639169,"userId":717021594,"createdAt":"30-mar-2014 23:56:07","inReplyToUserId":-1,"text":"Jessica Cree qq Yo Soy Tonta??","geoLocation":{"latitude":41.48982713,"longitude":2.14743648},"userLang":"es","userLocation":"POETA CALLEJERO?"},
{"id":450391071282196480,"userId":190199410,"createdAt":"30-mar-2014 23:56:13","inReplyToUserId":-1,"text":"Que hace usted para cambiar el mundo? ?","geoLocation":{"latitude":41.37806236,"longitude":2.17907314},"userLang":"es","userLocation":"Barcelona-Lal?n"},
{"id":450391119256637440,"userId":291647894,"createdAt":"30-mar-2014 23:56:25","inReplyToUserId":377401162,"text":"?@alexandreamat:\"Para tener enemigos no hace falta declarar guerra. Basta decir lo q se piensa?. LutherKing?.Per aix? ja fa temps he emmudit","geoLocation":{"latitude":41.45239355,"longitude":2.20686855},"userLang":"es","userLocation":"Santa Coloma de Gramenet"},
{"id":450391119374077952,"userId":1716135254,"createdAt":"30-mar-2014 23:56:25","inReplyToUserId":2445792418,"text":"@190111H ????? ???? ???? ?????? ???? ????","userLang":"fr","userLocation":""},
{"id":450391127565565952,"userId":717021594,"createdAt":"30-mar-2014 23:56:27","inReplyToUserId":-1,"text":"Baii??","geoLocation":{"latitude":41.48980719,"longitude":2.147486},"userLang":"es","userLocation":"POETA CALLEJERO?"},
{"id":450391140844716032,"userId":189247931,"createdAt":"30-mar-2014 23:56:30","inReplyToUserId":577572741,"text":"@WHOliaP Me vah a complementah menoh","userLang":"en","userLocation":"Pyke"},
{"id":450391143642312705,"userId":522340888,"createdAt":"30-mar-2014 23:56:31","inReplyToUserId":-1,"text":"Ma?ana comienza la feria #Alimentaria2014 te esperamos en nuestro stand n?m 120 P4 Mundidulce calle F","geoLocation":{"latitude":41.3765839,"longitude":2.16847516},"userLang":"es","userLocation":"ESTEPA (Sevilla)"},
{"id":450391146880323584,"userId":308053082,"createdAt":"30-mar-2014 23:56:31","inReplyToUserId":-1,"text":"\"@navedelmisterio: Zonas donde se concentran desapariciones de aviones: el tri?ngulo de las Bermudas #CuartoMilenio http://t.co/r7uQZnJ6zv\"","geoLocation":{"latitude":41.4635417,"longitude":2.2709642},"userLang":"es","userLocation":"Montgat (Barcelona)"},
{"id":450391222973399041,"userId":559838079,"createdAt":"30-mar-2014 23:56:50","inReplyToUserId":-1,"text":"PORNO DURO by @Skrillex y @diplo #UltraSpain","userLang":"es","userLocation":"BCN"},
{"id":450391225552896000,"userId":210076816,"createdAt":"30-mar-2014 23:56:50","inReplyToUserId":-1,"text":"Barcelona #noucamp #futbol #barcelona #spain http://t.co/OQTls6ucDe","geoLocation":{"latitude":41.38397131,"longitude":2.16090738},"userLang":"en","userLocation":"London / Reading"},
{"id":450391229810094080,"userId":1684381436,"createdAt":"30-mar-2014 23:56:51","inReplyToUserId":222201688,"text":"@syyyyylvi lo m?s seguro. Pero Enfin ya lo dec?a forest gump. Nanit!","geoLocation":{"latitude":41.37164553,"longitude":2.08338782},"userLang":"es","userLocation":"Barcelona"},
{"id":450391257656066048,"userId":187195257,"createdAt":"30-mar-2014 23:56:58","inReplyToUserId":345139782,"text":"@stephieduf no","geoLocation":{"latitude":41.38593609,"longitude":2.15961567},"userLang":"en","userLocation":"NJ/AZ to Barcelona, Spain"},
{"id":450391259329593344,"userId":820493484,"createdAt":"30-mar-2014 23:56:58","inReplyToUserId":617346902,"text":"@bombita1987 bombi !! te animas a venir ma?ana conmigo al gym? jajajajajaajajajajaja","userLang":"es","userLocation":"Ciudad del encanto, Sevilla "},
{"id":450391277067325440,"userId":212327978,"createdAt":"30-mar-2014 23:57:02","inReplyToUserId":-1,"text":"?No os ralla el WhatsApp ya? ?O solo me ralla a mi?","geoLocation":{"latitude":41.44738111,"longitude":2.1746607},"userLang":"es","userLocation":"Barcelona"},
{"id":450391284600307712,"userId":280647767,"createdAt":"30-mar-2014 23:57:04","inReplyToUserId":1668175206,"text":"@ibupr0feno OHHH SIIII. (Acabo de recordah que me los diste para desayunar JAJAJAJAJAJA)","geoLocation":{"latitude":41.3877472,"longitude":2.1415537},"userLang":"es","userLocation":"Barcelona city bro."},
{"id":450391305693437952,"userId":83334609,"createdAt":"30-mar-2014 23:57:09","inReplyToUserId":-1,"text":"Booona nit","userLang":"es","userLocation":"@Cocoasdfg, te quiero."},
{"id":450391317231964160,"userId":1401021037,"createdAt":"30-mar-2014 23:57:12","inReplyToUserId":-1,"text":"#cuartomilenio veo q la gente tuitea m?s de los anuncios q del programa. El extra?o caso de la gente q tuitea m?s de los anuncios q del p...","userLang":"es","userLocation":"  barcelona - Spain"},
{"id":450391318020497408,"userId":1687071908,"createdAt":"30-mar-2014 23:57:12","inReplyToUserId":-1,"text":", mme guta e xocolate","geoLocation":{"latitude":41.3614485,"longitude":2.1264135},"userLang":"es","userLocation":"follow your dreams"},
{"id":450391324836253696,"userId":1691640108,"createdAt":"30-mar-2014 23:57:14","inReplyToUserId":-1,"text":"?????? ??? ???","userLang":"fr","userLocation":"??????? ????? ????? ???? ???"},
{"id":450391335489789952,"userId":1230042265,"createdAt":"30-mar-2014 23:57:16","inReplyToUserId":-1,"text":"Ser pefecta es impossible pero por ti aria lo impossible","geoLocation":{"latitude":41.5632739,"longitude":1.9948018},"userLang":"es","userLocation":""},
{"id":450391353227505664,"userId":588936904,"createdAt":"30-mar-2014 23:57:21","inReplyToUserId":60645723,"text":"@hopeinvein eso es lo que pienso yo, un trozo de cart?n no mide la inteligencia de alguien. Pero por desgracia sino se tiene un carrera..","userLang":"es","userLocation":"Barcelona"},
{"id":450391376245829632,"userId":308053082,"createdAt":"30-mar-2014 23:57:26","inReplyToUserId":-1,"text":"\"@navedelmisterio: El Tri?ngulo del Diablo, frente a Jap?n #CuartoMilenio http://t.co/ZFJ1KOxWWa\"","geoLocation":{"latitude":41.4634641,"longitude":2.2709758},"userLang":"es","userLocation":"Montgat (Barcelona)"},
{"id":450391384781230080,"userId":187195257,"createdAt":"30-mar-2014 23:57:28","inReplyToUserId":345139782,"text":"@stephieduf still wrong","geoLocation":{"latitude":41.38596885,"longitude":2.15962004},"userLang":"en","userLocation":"NJ/AZ to Barcelona, Spain"},
{"id":450391384995164161,"userId":472173406,"createdAt":"30-mar-2014 23:57:28","inReplyToUserId":-1,"text":"Siempre me cuesta much?simo acostumbrarme al cambio horario. Mi mente se cree que son las 22:57 y dice que no es hora a?n de tener sue?o.","geoLocation":{"latitude":41.54419229,"longitude":1.89297782},"userLang":"ca","userLocation":"somewhere. "},
{"id":450391391601192960,"userId":223615005,"createdAt":"30-mar-2014 23:57:30","inReplyToUserId":-1,"text":"La semana que me espera es guapa, guapa.","geoLocation":{"latitude":41.45321274,"longitude":2.18959111},"userLang":"es","userLocation":"F*CK*NG BCN CITY. "},
{"id":450391394411376641,"userId":314056453,"createdAt":"30-mar-2014 23:57:30","inReplyToUserId":-1,"text":"M?s ?o?a no puede ser. http://t.co/9bBiAOKkXr","geoLocation":{"latitude":41.4396617,"longitude":2.2205965},"userLang":"es","userLocation":"Barcelona, Espa?a"},
{"id":450391394960822274,"userId":94994205,"createdAt":"30-mar-2014 23:57:31","inReplyToUserId":-1,"text":"Hoy tenemos la cama de matrimonio para nosotros solitos http://t.co/Ry05z3bMGf","geoLocation":{"latitude":41.430966,"longitude":2.1935472},"userLang":"es","userLocation":"Wonderland in TRANSYLVANIA"},
{"id":450391432227205121,"userId":465753981,"createdAt":"30-mar-2014 23:57:39","inReplyToUserId":-1,"text":"Mi alma gemela.. ? http://t.co/4q0CB6zPPC","geoLocation":{"latitude":41.406728,"longitude":2.1385814},"userLang":"es","userLocation":"Barcelona "},
{"id":450391438782898176,"userId":1334456209,"createdAt":"30-mar-2014 23:57:41","inReplyToUserId":1710545083,"text":"@Killerbitches17  Son mis dos grupos favoritos xd","userLang":"es","userLocation":""},
{"id":450391472500912128,"userId":291062326,"createdAt":"30-mar-2014 23:57:49","inReplyToUserId":-1,"text":"Bonanit?","geoLocation":{"latitude":41.30372363,"longitude":2.00209243},"userLang":"ca","userLocation":"Gav?, Barcelona"},
{"id":450391474929422336,"userId":276177233,"createdAt":"30-mar-2014 23:57:50","inReplyToUserId":-1,"text":"No tener ni idea de Jack? desde el UMF y que sean una jodida pasada. A?n me arrepiento m?s de no haber ido a ver a @Skrillex a Razz.","geoLocation":{"latitude":41.43651824,"longitude":2.16057387},"userLang":"es","userLocation":"Barcelona"},
{"id":450391482953113600,"userId":123199794,"createdAt":"30-mar-2014 23:57:52","inReplyToUserId":83941775,"text":"@Nicolasbdf de toute fa?on on allait pas ? Beziers","userLang":"en","userLocation":"nimes ou Barcelone"},
{"id":450391491626934272,"userId":54535299,"createdAt":"30-mar-2014 23:57:54","inReplyToUserId":272113175,"text":"@QuinManso @JosepLDT @Lultimsegador @enrnavdom 2/ dem? ens d?na el text complert (d la part q es veu). Far? post a http://t.co/fvFFaSPnHj...","geoLocation":{"latitude":41.44986421,"longitude":2.21031606},"userLang":"ca","userLocation":"Santa Coloma de Gramenet"},
{"id":450391508488036352,"userId":578291954,"createdAt":"30-mar-2014 23:57:58","inReplyToUserId":464681634,"text":"@GuilleRuGu gitano","userLang":"es","userLocation":"En la suela de mi zapato"},
{"id":450391509993803778,"userId":308053082,"createdAt":"30-mar-2014 23:57:58","inReplyToUserId":-1,"text":"\"@navedelmisterio: El Tri?ngulo mortal de #Argentina #CuartoMilenio http://t.co/a0iymMg1bh\"","geoLocation":{"latitude":41.4634641,"longitude":2.2709758},"userLang":"es","userLocation":"Montgat (Barcelona)"},
{"id":450391512267104256,"userId":2414054797,"createdAt":"30-mar-2014 23:57:59","inReplyToUserId":-1,"text":"http://t.co/6U4N0LGTp4 La designaci?n por sorteo como bomba pol?ticamente duradera ...","userLang":"es","userLocation":""},
{"id":450391521247133696,"userId":223615005,"createdAt":"30-mar-2014 23:58:01","inReplyToUserId":-1,"text":"En total siete ex?menes. Dw vida.","geoLocation":{"latitude":41.45321274,"longitude":2.18959111},"userLang":"es","userLocation":"F*CK*NG BCN CITY. "},
{"id":450391524313169920,"userId":1975619018,"createdAt":"30-mar-2014 23:58:01","inReplyToUserId":-1,"text":"Cada d?a vivo m?s enamorada de \u0027No hay m?s\u0027 @PabloLopezMusic @antoniorozco que grandes sois*_*","geoLocation":{"latitude":41.6125842,"longitude":2.2717567},"userLang":"es","userLocation":"Ballerina?"},
{"id":450391524753539072,"userId":262890354,"createdAt":"30-mar-2014 23:58:02","inReplyToUserId":1093304107,"text":"@gustavoacosta31 @AnnaPrenafeta yo me ido a casa de mi padre y no tengo tdt en el cuarto ni ordenador as? que ver? las bratz por el dvd :\u0027)","geoLocation":{"latitude":41.4956445,"longitude":2.0358342},"userLang":"es","userLocation":"Barcelona, Catalu?a."},
{"id":450391535134076928,"userId":341506539,"createdAt":"30-mar-2014 23:58:04","inReplyToUserId":-1,"text":"Viendo ?47 Ronin? a ver que tal","userLang":"es","userLocation":"Badalona"},
{"id":450391535281266689,"userId":559838079,"createdAt":"30-mar-2014 23:58:04","inReplyToUserId":-1,"text":"DIOS PERO EHTO QUE EHHHHHHHHHH #ElPutoRemix #UltraSpain","userLang":"es","userLocation":"BCN"},
{"id":450391536996741121,"userId":1565195281,"createdAt":"30-mar-2014 23:58:04","inReplyToUserId":401495432,"text":"@JuanraGil1 Juanra. Como lo puedo hacer para plantearle al Ayto una ubicacion para La Fundacion. Tu me ayudas????? http://t.co/3GIn5R1hBD","geoLocation":{"latitude":41.82332504,"longitude":1.89634828},"userLang":"es","userLocation":"Barcelona616 71 84 64"},
{"id":450391542168293376,"userId":89308003,"createdAt":"30-mar-2014 23:58:06","inReplyToUserId":-1,"text":"At work / on holiday 24/7","geoLocation":{"latitude":41.34590222,"longitude":2.10848851},"userLang":"en","userLocation":"Newmarket, UK"},
{"id":450391544525512705,"userId":1334456209,"createdAt":"30-mar-2014 23:58:06","inReplyToUserId":-1,"text":"Buenas noches.\nhttp://t.co/4X3bsEhYCZ","userLang":"es","userLocation":""},
{"id":450391548187123712,"userId":2267624696,"createdAt":"30-mar-2014 23:58:07","inReplyToUserId":-1,"text":"I definitely can\u0027t sleep tonight! waiting for @djafrojack at #ULTRALIVE","userLang":"es","userLocation":"Barcelona"},
{"id":450391553501327360,"userId":315315196,"createdAt":"30-mar-2014 23:58:08","inReplyToUserId":-1,"text":"Esta gente q le pide rt a los famoso... #otrorollo #decadenciasocial #comprateunavida #nadallegasolo","geoLocation":{"latitude":41.40326223,"longitude":2.13547919},"userLang":"es","userLocation":""},
{"id":450391590809640960,"userId":243174151,"createdAt":"30-mar-2014 23:58:17","inReplyToUserId":-1,"text":"Alee Mathieu y Vargas no podran jugar la semana que viene.. definitivamente han tirado la liga sin certificar la permanencia..","geoLocation":{"latitude":41.4389576,"longitude":2.2313567},"userLang":"es","userLocation":"Badalona"},
{"id":450391611638550528,"userId":245706432,"createdAt":"30-mar-2014 23:58:22","inReplyToUserId":562299777,"text":"@OlaiaPamplona ohhhh tienen q venir aqui!!!!!\n#paleotraining #paleobattlerun #PaleoDiet","geoLocation":{"latitude":41.40170025,"longitude":2.15208561},"userLang":"es","userLocation":"Arrecife de Lanzarote"},
{"id":450391619809058816,"userId":1687071908,"createdAt":"30-mar-2014 23:58:24","inReplyToUserId":-1,"text":"Quierooo dormirrrrr job","geoLocation":{"latitude":41.3614525,"longitude":2.126415},"userLang":"es","userLocation":"follow your dreams"},
{"id":450391634493337600,"userId":1230042265,"createdAt":"30-mar-2014 23:58:28","inReplyToUserId":-1,"text":"Me averguanza saver que una parte de mi pasado esta relacionado con tigo","geoLocation":{"latitude":41.5632603,"longitude":1.9949013},"userLang":"es","userLocation":""},
{"id":450391645209784320,"userId":212908872,"createdAt":"30-mar-2014 23:58:30","inReplyToUserId":1418614968,"text":"@Aguirreguitar 40 personas haciendo cola en un kebab??? Que lo hace tan especial??","geoLocation":{"latitude":41.38734481,"longitude":2.14616578},"userLang":"es","userLocation":"Amposta - Barcelona - ESMUC"},
{"id":450391646073810944,"userId":263742129,"createdAt":"30-mar-2014 23:58:30","inReplyToUserId":553689508,"text":"?@IngenieroFucker: No juegues si est?s de ex?menes http://t.co/0xRtrQkeoy? @Aranabcn","geoLocation":{"latitude":41.40372339,"longitude":2.18259952},"userLang":"es","userLocation":""},
{"id":450391654135267328,"userId":158705491,"createdAt":"30-mar-2014 23:58:32","inReplyToUserId":-1,"text":"Estamos cogiendo fuerzas para @Alimentaria que empieza ma?ana! #verdejoenelmundo #deferiaenferia ? http://t.co/Tlg5HtNoD6","geoLocation":{"latitude":41.38534744,"longitude":2.19717215},"userLang":"es","userLocation":"La Seca, Valladolid"},
{"id":450391661974413312,"userId":455334530,"createdAt":"30-mar-2014 23:58:34","inReplyToUserId":-1,"text":"\"@MarcusButlerTv: It\u0027s better to make a few people happy than a lot of people semi-happy\"","geoLocation":{"latitude":41.3994484,"longitude":2.1459747},"userLang":"es","userLocation":""},
{"id":450391673013809152,"userId":1426483459,"createdAt":"30-mar-2014 23:58:37","inReplyToUserId":-1,"text":"Amigos... De regalo de cumplea?os quiero una entrada para el partido del martes del Bar?a... Est?n car?simas!!! ?","geoLocation":{"latitude":41.4232625,"longitude":2.19061048},"userLang":"es","userLocation":""},
{"id":450391681586987008,"userId":212327978,"createdAt":"30-mar-2014 23:58:39","inReplyToUserId":879730201,"text":"@SritaRG4L me sigues. Te sigo. Me das unfollow. Te doy unfollow. ?Y me vuelves a seguir? ?Troleito nocturno?","geoLocation":{"latitude":41.44734117,"longitude":2.17469474},"userLang":"es","userLocation":"Barcelona"},
{"id":450391682421653504,"userId":1035286302,"createdAt":"30-mar-2014 23:58:39","inReplyToUserId":-1,"text":"me gustaria saber si tu tambien piensas en mi..","userLang":"es","userLocation":"RG4L?"},
{"id":450391692395704322,"userId":169994298,"createdAt":"30-mar-2014 23:58:42","inReplyToUserId":-1,"text":"Na nit?","userLang":"es","userLocation":"Barcelona / Pucela / Badalona"},
{"id":450391700037705728,"userId":95927604,"createdAt":"30-mar-2014 23:58:43","inReplyToUserId":254104901,"text":"@RamonCarner @LluisBassas @davidOlmedoH @PENITENCIAGITE1 @tonicantona \nSi tu ho dius...","geoLocation":{"latitude":41.27911506,"longitude":1.9753228},"userLang":"en","userLocation":"Castelldefels and Phx"},
{"id":450391711425261569,"userId":35796837,"createdAt":"30-mar-2014 23:58:46","inReplyToUserId":296742795,"text":"@Susana_bicho esta genial esta serie","geoLocation":{"latitude":41.44753779,"longitude":2.22222348},"userLang":"es","userLocation":"Barcelona"},
{"id":450391718303899648,"userId":14501084,"createdAt":"30-mar-2014 23:58:48","inReplyToUserId":-1,"text":"Build a ? boys!","userLang":"en","userLocation":"Barcelona, Spain"},
{"id":450391726382149632,"userId":559838079,"createdAt":"30-mar-2014 23:58:50","inReplyToUserId":-1,"text":"Diplo in da haus. #UltraSpain","userLang":"es","userLocation":"BCN"},
{"id":450391731578888193,"userId":272505373,"createdAt":"30-mar-2014 23:58:51","inReplyToUserId":152976606,"text":"@jcasas4 Enorabuena por el ascenso!! No sabes cuanto me he alegrado, una pena no haber podido estar para celebrarlo con todos!","geoLocation":{"latitude":41.38559655,"longitude":2.14832126},"userLang":"es","userLocation":"C?diz"},
{"id":450391743146762242,"userId":140908164,"createdAt":"30-mar-2014 23:58:54","inReplyToUserId":291779348,"text":"@aalcaraz97 capita alcaraz amagi el caza ehh que es podria alliberar els misils vale? Eh? D\u0027acord? Seria com achupirse devant de don limpio","geoLocation":{"latitude":41.3679706,"longitude":2.1276796},"userLang":"ca","userLocation":"L\u0027Hospitalet de Llob"},
{"id":450391755670970368,"userId":1565195281,"createdAt":"30-mar-2014 23:58:57","inReplyToUserId":220432164,"text":"?@HappyRub: @Crisduva76 q descanses besos para ti y @sabinaaguado???????????cuidate mucho Rob, esa pata tiesa a descansar, eh???? ???","geoLocation":{"latitude":41.82332504,"longitude":1.89634828},"userLang":"es","userLocation":"Barcelona616 71 84 64"},
{"id":450391755880665088,"userId":2294099470,"createdAt":"30-mar-2014 23:58:57","inReplyToUserId":-1,"text":"Buenas noches mis guapetones\n@DanieloviedoM \u0026\n@_jesus_OM  osquiero? http://t.co/AAOGakD0L7","geoLocation":{"latitude":41.4470585,"longitude":2.2147939},"userLang":"es","userLocation":""},
{"id":450391769235345410,"userId":114480260,"createdAt":"30-mar-2014 23:59:00","inReplyToUserId":199447650,"text":"@punsix ?","geoLocation":{"latitude":41.37188815,"longitude":2.12167936},"userLang":"ca","userLocation":""},
{"id":450391801485332481,"userId":119010063,"createdAt":"30-mar-2014 23:59:08","inReplyToUserId":1737625260,"text":"@Soniacm94 gracias","geoLocation":{"latitude":41.38633341,"longitude":2.05179267},"userLang":"es","userLocation":"ESPA?A"},
{"id":450391850919403520,"userId":282607128,"createdAt":"30-mar-2014 23:59:19","inReplyToUserId":1191191106,"text":"@Stephensdisplay will do! You too dad! Talk soon :)","geoLocation":{"latitude":41.38293934,"longitude":2.16426351},"userLang":"en","userLocation":"Cork, Ireland"},
{"id":450391851628244992,"userId":301484731,"createdAt":"30-mar-2014 23:59:19","inReplyToUserId":-1,"text":"ho preso questa maglia allegria portami via http://t.co/YukEYPOP30","geoLocation":{"latitude":41.4110424,"longitude":2.1863153},"userLang":"it","userLocation":"???"},
{"id":450391879906234369,"userId":2448136684,"createdAt":"30-mar-2014 23:59:26","inReplyToUserId":-1,"text":"Snowboarding### http://t.co/IT9kxmJO06","geoLocation":{"latitude":41.38451754,"longitude":2.1786032},"userLang":"es","userLocation":"Barcelona"},
{"id":450391900231839744,"userId":295784302,"createdAt":"30-mar-2014 23:59:31","inReplyToUserId":-1,"text":"Yo se que Soldier esta al caer ya mismo.. cuando? no lo se, pero pronto lo tendremos","geoLocation":{"latitude":41.6198554,"longitude":2.27981},"userLang":"es","userLocation":"Barcelona. Memphis"},
{"id":450391903931232256,"userId":827327196,"createdAt":"30-mar-2014 23:59:32","inReplyToUserId":1137076357,"text":"@roger_pitu moltes gr?cies, ens veiem a les territorials!","geoLocation":{"latitude":41.2238513,"longitude":1.69894096},"userLang":"es","userLocation":""},
{"id":450391906376486912,"userId":400290706,"createdAt":"30-mar-2014 23:59:33","inReplyToUserId":-1,"text":"When I get home tomorrow I want roosters, chipotle, menchies and spaghetti ??????","geoLocation":{"latitude":41.39007931,"longitude":2.16603736},"userLang":"en","userLocation":""},
{"id":450391914970624001,"userId":631649784,"createdAt":"30-mar-2014 23:59:35","inReplyToUserId":-1,"text":"Nanit","geoLocation":{"latitude":41.5615765,"longitude":2.1000465},"userLang":"es","userLocation":"Con mis Nema2s."},
{"id":450391932423122944,"userId":246452645,"createdAt":"30-mar-2014 23:59:39","inReplyToUserId":233692042,"text":"@lluisgibert @AEsparducerS La democr?cia ?s un combat di?ri que cal exercir i defensar arreu i sempre.","userLang":"ca","userLocation":"Raval, Pa?sos Catalans"},
{"id":450391934969069568,"userId":2328629022,"createdAt":"30-mar-2014 23:59:39","inReplyToUserId":-1,"text":"ee perdido una pulsera :(","userLang":"es","userLocation":""},
{"id":450391961351237632,"userId":30042212,"createdAt":"30-mar-2014 23:59:46","inReplyToUserId":-1,"text":"I\u0027m at Bracaf? w/ @matildebalet @maritarzbarreto http://t.co/GPEsAlGdoF","geoLocation":{"latitude":41.38880766,"longitude":2.16994294},"userLang":"en","userLocation":"Barcelona - Spain"},
{"id":450391962265608192,"userId":170702180,"createdAt":"30-mar-2014 23:59:46","inReplyToUserId":-1,"text":"#sing @ I SEE FIRE http://t.co/DnrTACZen4","geoLocation":{"latitude":41.48458107,"longitude":2.0400062},"userLang":"en","userLocation":"Barcelona"},
{"id":450391977373491200,"userId":276672653,"createdAt":"30-mar-2014 23:59:49","inReplyToUserId":166507237,"text":"?@elEconomistaes: ?Se acaba el recorte de funcionarios? El Gobierno se plantea cubrir jubilaciones http://t.co/HLKw9Nith4?@ugtdiba","geoLocation":{"latitude":41.40144922,"longitude":2.2005254},"userLang":"ca","userLocation":"Barcelona"},
{"id":450392006259654656,"userId":2352302159,"createdAt":"30-mar-2014 23:59:56","inReplyToUserId":-1,"text":"Asi recibi mis 20a?os. ??? http://t.co/7T0BbmClJQ","geoLocation":{"latitude":41.4902203,"longitude":2.1480224},"userLang":"es","userLocation":"Barcelona - Espa?a"},
{"id":450392010651074560,"userId":317615062,"createdAt":"30-mar-2014 23:59:57","inReplyToUserId":2411226216,"text":"@FUERACENIZOS @Egia9 mi foto es MUY REALISTA la auto critica tambi?n existe a lo mejor no todo el mundo piensa como tu","geoLocation":{"latitude":41.2420802,"longitude":1.80755894},"userLang":"es","userLocation":"sitges"},
{"id":450392012383322112,"userId":260853513,"createdAt":"30-mar-2014 23:59:58","inReplyToUserId":-1,"text":"Puja a l\u0027abre, obre el cofre i busca un gat i sabr?s que el que ?s petit sempre somia... @anna_moliner","geoLocation":{"latitude":41.87517436,"longitude":2.03464547},"userLang":"ca","userLocation":"Santa Maria d\u0027Ol?, Catalonia"},
{"id":450392013041848321,"userId":507700249,"createdAt":"30-mar-2014 23:59:58","inReplyToUserId":-1,"text":"Buuenas noches mozos.","geoLocation":{"latitude":41.399437,"longitude":2.1539334},"userLang":"es","userLocation":"Sdc (ojal?) "},
{"id":450392028883329024,"userId":584661634,"createdAt":"31-mar-2014 0:00:02","inReplyToUserId":-1,"text":"ding ding ding ding DONG DONG DONG DONG DONG DONG DONG DONG DONG DONG DONG DONG!!!!!!!!!!!!","geoLocation":{"latitude":41.545639,"longitude":1.893817},"userLang":"ca","userLocation":"Olesa de Montserrat"},
{"id":450392028338475008,"userId":1384110594,"createdAt":"31-mar-2014 0:00:02","inReplyToUserId":-1,"text":"S?n les dotze en punt de la matinada","geoLocation":{"latitude":41.545639,"longitude":1.893817},"userLang":"ca","userLocation":"Olesa de Montserrat"},
{"id":450392036722884608,"userId":224423277,"createdAt":"31-mar-2014 0:00:04","inReplyToUserId":-1,"text":"Impresionante @MONTANYESA  http://t.co/vn77Oxj3l4 Tven3 y prensa culerda abstenerse de ir,no ponen alfombra y  se dicen tacos #VivaElFutbol","userLang":"es","userLocation":""},
{"id":450392040808120320,"userId":1591858471,"createdAt":"31-mar-2014 0:00:05","inReplyToUserId":-1,"text":"Esta final no tiene emoci?n... yo creo que la del Bo2 fue de las mejores que habr? visto.","userLang":"es","userLocation":"CATALUNYA! L\u0027Empord? "},
{"id":450392044717236224,"userId":402786634,"createdAt":"31-mar-2014 0:00:06","inReplyToUserId":541637149,"text":"@Juanje_ @Anothinking Jjajajaja, me has ca?do muy bien, ya tienes un nuevo futuro suscriptor para tu canal xD (s?, mi criterio es la polla)","userLang":"es","userLocation":""},
{"id":450392046390763520,"userId":262890354,"createdAt":"31-mar-2014 0:00:06","inReplyToUserId":181175093,"text":"@Pauulabiebber quererme m?s","geoLocation":{"latitude":41.4954495,"longitude":2.0336393},"userLang":"es","userLocation":"Barcelona, Catalu?a."},
{"id":450392047183470593,"userId":486762622,"createdAt":"31-mar-2014 0:00:06","inReplyToUserId":1137422576,"text":"@Birritas_ @RHernandezCat hahahahaha","geoLocation":{"latitude":41.358612,"longitude":2.07844993},"userLang":"es","userLocation":"Catalunya | Norge | Deutchland"},
{"id":450392054892609538,"userId":122307687,"createdAt":"31-mar-2014 0:00:08","inReplyToUserId":-1,"text":"31/03/2014 a 00:00h\nTemp:13,5?C\nTemp aparente:13,4?C\nHum:95%\nPres:1015,78hpa\nVie:4,8Km/hENE\nRafaga:9,7Km/h\nLlu:0,0mm","geoLocation":{"latitude":41.56638889,"longitude":2.0825},"userLang":"es","userLocation":"Barcelona, Espa?a."},
{"id":450392060663988224,"userId":1460468562,"createdAt":"31-mar-2014 0:00:09","inReplyToUserId":-1,"text":"El temps a #Montbau\nTemp: 12,8?C (12,8?C-12,8?C); T.ap: 12,5?C; Humitat: 96%; Pressio: 1015,0hpa; Pluja 0,0mm\nhttp://t.co/2Hi7WCN8Bu","geoLocation":{"latitude":41.43,"longitude":2.14277778},"userLang":"ca","userLocation":"Barcelona"},
{"id":450392072529649665,"userId":1339816290,"createdAt":"31-mar-2014 0:00:12","inReplyToUserId":-1,"text":"its weird but so cute\nhttps://t.co/hgrlBrnJWc","userLang":"en-gb","userLocation":"Stuck in the Moment"},
{"id":450392074039611392,"userId":294616747,"createdAt":"31-mar-2014 0:00:12","inReplyToUserId":245706432,"text":"@Paleolanzarote paleo everywhere!\n#paleotraining #bepaleo #paleobattlerun","geoLocation":{"latitude":41.40171198,"longitude":2.1520948},"userLang":"es","userLocation":"Lanzarote"},
{"id":450392075557961729,"userId":245706432,"createdAt":"31-mar-2014 0:00:13","inReplyToUserId":245706432,"text":"@Paleolanzarote paleo everywhere!\n#paleotraining #bepaleo #paleobattlerun","geoLocation":{"latitude":41.40171198,"longitude":2.1520948},"userLang":"es","userLocation":"Arrecife de Lanzarote"},
{"id":450392076405202945,"userId":1878801782,"createdAt":"31-mar-2014 0:00:13","inReplyToUserId":245706432,"text":"@Paleolanzarote paleo everywhere!\n#paleotraining #bepaleo #paleobattlerun","geoLocation":{"latitude":41.40171198,"longitude":2.1520948},"userLang":"es","userLocation":"Espa?a"},
{"id":450392077197934592,"userId":2253215670,"createdAt":"31-mar-2014 0:00:13","inReplyToUserId":245706432,"text":"@Paleolanzarote paleo everywhere!\n#paleotraining #bepaleo #paleobattlerun","geoLocation":{"latitude":41.40171198,"longitude":2.1520948},"userLang":"es","userLocation":""},
{"id":450392087847256064,"userId":2289955559,"createdAt":"31-mar-2014 0:00:16","inReplyToUserId":-1,"text":"?La verdad? Soy iron-man.","geoLocation":{"latitude":41.57945723,"longitude":2.01103458},"userLang":"es","userLocation":"Bosque verde"},
{"id":450392113034067968,"userId":95927604,"createdAt":"31-mar-2014 0:00:22","inReplyToUserId":157815835,"text":"@joelarbones @antrom71 \nSi tu ho dius i t\u0027ho creus ja ?s important.\nPer cert compartim cognom per? no ideari.\nSalut!","geoLocation":{"latitude":41.27912176,"longitude":1.97537291},"userLang":"en","userLocation":"Castelldefels and Phx"},
{"id":450392120504090624,"userId":301484731,"createdAt":"31-mar-2014 0:00:24","inReplyToUserId":-1,"text":"ecco perch? sono cos? malaticcia omg","geoLocation":{"latitude":41.4110424,"longitude":2.1863153},"userLang":"it","userLocation":"???"},
{"id":450392177299169281,"userId":1544294910,"createdAt":"31-mar-2014 0:00:37","inReplyToUserId":-1,"text":"No sufri?, muri? de odio","geoLocation":{"latitude":41.44697822,"longitude":2.23884148},"userLang":"es","userLocation":"Badalona, Barcelona. "},
{"id":450392187986280448,"userId":517929249,"createdAt":"31-mar-2014 0:00:40","inReplyToUserId":562999902,"text":"@NoaBlonde yaa... nose si ma?ana nos veremos si llueve... jajaja","geoLocation":{"latitude":41.39702699,"longitude":2.14119852},"userLang":"es","userLocation":""},
{"id":450392193967337472,"userId":1591858471,"createdAt":"31-mar-2014 0:00:41","inReplyToUserId":-1,"text":"PARTICIPA!!!! vhttps://twitter.com/iLuSioN_GATITO/status/450263707776716800","userLang":"es","userLocation":"CATALUNYA! L\u0027Empord? "},
{"id":450392205174521856,"userId":90757317,"createdAt":"31-mar-2014 0:00:44","inReplyToUserId":-1,"text":"Joyeux Anniversaire Tour Eiffel! S?lo ten?a que durar 20 a?os y hoy cumple 125! Entre el Trocadero y? http://t.co/3qX1xSzT5O","geoLocation":{"latitude":41.40101753,"longitude":2.20304011},"userLang":"es","userLocation":"Barcelona"},
{"id":450392206164377600,"userId":353723465,"createdAt":"31-mar-2014 0:00:44","inReplyToUserId":-1,"text":"Se termina otro fin de semana...Ya solo quedan 8 finales y 24puntos en juego. Hay que ir partido a partido #JuvA #UBC http://t.co/aCd4kfWeKI","geoLocation":{"latitude":41.3831032,"longitude":2.1516085},"userLang":"es","userLocation":""},
{"id":450392210413223936,"userId":1035286302,"createdAt":"31-mar-2014 0:00:45","inReplyToUserId":226316223,"text":"@ZodiacoHoy oi las klavao","userLang":"es","userLocation":"RG4L?"},
{"id":450392221406470145,"userId":377558965,"createdAt":"31-mar-2014 0:00:48","inReplyToUserId":-1,"text":"A este paso me echan de casa. I CAN\u0027T STOOOOOPPPPP #JackU","userLang":"ca","userLocation":"Barcelona"},
{"id":450392222413111296,"userId":270304832,"createdAt":"31-mar-2014 0:00:48","inReplyToUserId":1186227721,"text":"@indecentesdb Buenas noches. TE QUIERO INFINITO.","userLang":"es","userLocation":"\u0027Muy MUY CAPACITADOS.\u0027 db?"},
{"id":450392242008899584,"userId":347887458,"createdAt":"31-mar-2014 0:00:53","inReplyToUserId":-1,"text":"DE D?NDE HAS SACADO ESE GORRO @Alimonster__","userLang":"es","userLocation":"Canal Divinity"},
{"id":450392251089584130,"userId":1547049247,"createdAt":"31-mar-2014 0:00:55","inReplyToUserId":-1,"text":"Partido igualado, pero la verdad un poquitin aburrido el #SuperClasico","userLang":"en-gb","userLocation":"Barcelona"},
{"id":450392258886762496,"userId":65605809,"createdAt":"31-mar-2014 0:00:57","inReplyToUserId":-1,"text":"Algunos creen haber ganado lo mejor, si se fijaran bien en lo mucho que perdieron por el camino... ?","geoLocation":{"latitude":41.68920486,"longitude":2.48762544},"userLang":"ca","userLocation":"Barcelona; Catalunya"},
{"id":450392307863678976,"userId":1687071908,"createdAt":"31-mar-2014 0:01:08","inReplyToUserId":-1,"text":"Menudo cochazo http://t.co/ZA5wcTqY6R","geoLocation":{"latitude":41.361427,"longitude":2.1263465},"userLang":"es","userLocation":"follow your dreams"},
{"id":450392331238518784,"userId":362406203,"createdAt":"31-mar-2014 0:01:14","inReplyToUserId":81081065,"text":"@cronicaglobal Article dur?ssim, per? cert. \"Ha perdut el soberanisme i el transformisme pol?tic.\" @CatalunyaPlural http://t.co/7MCyRBa5m7","geoLocation":{"latitude":41.37314761,"longitude":2.07070759},"userLang":"es","userLocation":"Barcelona"},
{"id":450392337999749121,"userId":237492284,"createdAt":"31-mar-2014 0:01:15","inReplyToUserId":-1,"text":"uno borracho y bellako que no razona...","userLang":"es","userLocation":""},
{"id":450392372271398912,"userId":40347248,"createdAt":"31-mar-2014 0:01:24","inReplyToUserId":-1,"text":"Looks like I\u0027m taking a kines class this summer in order to keep my scholarship next year...cool","geoLocation":{"latitude":41.37687159,"longitude":2.17155575},"userLang":"en","userLocation":"TX"},
{"id":450392387568021504,"userId":1565195281,"createdAt":"31-mar-2014 0:01:27","inReplyToUserId":-1,"text":"#GenteMagicaBuscaEmpleo Juanfran... Graciassss eres un CRACK!!???????","geoLocation":{"latitude":41.82340102,"longitude":1.89626601},"userLang":"es","userLocation":"Barcelona616 71 84 64"},
{"id":450392394933235712,"userId":212908872,"createdAt":"31-mar-2014 0:01:29","inReplyToUserId":1418614968,"text":"@Aguirreguitar pues que suerte la tuya! Que aproveche si al final hay kebab! Jaja","geoLocation":{"latitude":41.38743513,"longitude":2.14604347},"userLang":"es","userLocation":"Amposta - Barcelona - ESMUC"},
{"id":450392407369334784,"userId":54535299,"createdAt":"31-mar-2014 0:01:32","inReplyToUserId":877656552,"text":"@Lultimsegador @enrnavdom @QuinManso @JosepLDT @khalidshabaz Ben vist... Nom?s diu q x votar no cal nacionalitat ni NIF, nom?s ser al padr?","geoLocation":{"latitude":41.44987189,"longitude":2.21031894},"userLang":"ca","userLocation":"Santa Coloma de Gramenet"},
{"id":450392438021320704,"userId":232829781,"createdAt":"31-mar-2014 0:01:39","inReplyToUserId":-1,"text":"?TU Y YO SIEMPRE??? @negrosurf29","geoLocation":{"latitude":41.4524385,"longitude":2.2416571},"userLang":"es","userLocation":""},
{"id":450392463149375489,"userId":1339816290,"createdAt":"31-mar-2014 0:01:45","inReplyToUserId":-1,"text":"i love how my mom doesnt care if i got bed at like 3:00 am on a school night because she knows at the end of the day im always awake","userLang":"en-gb","userLocation":"Stuck in the Moment"},
{"id":450392482921316352,"userId":1975619018,"createdAt":"31-mar-2014 0:01:50","inReplyToUserId":1456778275,"text":"@Carla_Clau_ @PabloLopezMusic @antoniorozco ya ves.. No me lo creo a?n!","geoLocation":{"latitude":41.6125847,"longitude":2.271757},"userLang":"es","userLocation":"Ballerina?"},
{"id":450392486008340480,"userId":215304886,"createdAt":"31-mar-2014 0:01:51","inReplyToUserId":-1,"text":"Desde la distancia mi infaltable grito de apoyo! \nVAMOS MI JUNIOR!!!","geoLocation":{"latitude":41.3942353,"longitude":2.165307},"userLang":"es","userLocation":"Barranquilla - Colombia"},
{"id":450392501992828928,"userId":1035286302,"createdAt":"31-mar-2014 0:01:55","inReplyToUserId":-1,"text":"Tristeza y muxa ravia es lo ke siento kuando me akuerdo de ti.","userLang":"es","userLocation":"RG4L?"},
{"id":450392516899397633,"userId":262890354,"createdAt":"31-mar-2014 0:01:58","inReplyToUserId":-1,"text":"Lo que conocemos lo conocemos a trav?s de las ideas, de la experiencia","geoLocation":{"latitude":41.4954495,"longitude":2.0336393},"userLang":"es","userLocation":"Barcelona, Catalu?a."},
{"id":450392519587934208,"userId":771175717,"createdAt":"31-mar-2014 0:01:59","inReplyToUserId":-1,"text":"??????????????????CL? http://t.co/4Rvm78SURW","geoLocation":{"latitude":41.39732775,"longitude":2.18838877},"userLang":"ja","userLocation":"??????"},
{"id":450392532615442432,"userId":584661634,"createdAt":"31-mar-2014 0:02:02","inReplyToUserId":-1,"text":"DONG DONG DONG DONG DONG DONG DONG DONG DONG DONG DONG DONG!!!!!!!!!!!!","geoLocation":{"latitude":41.545639,"longitude":1.893817},"userLang":"ca","userLocation":"Olesa de Montserrat"},
{"id":450392543478685697,"userId":559838079,"createdAt":"31-mar-2014 0:02:04","inReplyToUserId":111124753,"text":"@ivancalderero el de duplo revolution","userLang":"es","userLocation":"BCN"},
{"id":450392542962790400,"userId":253712702,"createdAt":"31-mar-2014 0:02:04","inReplyToUserId":-1,"text":"1-3. El Getafe respira en Mestalla y deja al Valencia sin objetivos http://t.co/bWNfux0qE0","geoLocation":{"latitude":41.3253929,"longitude":2.1051419},"userLang":"es","userLocation":"El Prat de Llobregat"},
{"id":450392548973228032,"userId":317615062,"createdAt":"31-mar-2014 0:02:06","inReplyToUserId":2411226216,"text":"@FUERACENIZOS @Egia9 te estas definiendo a ti mismo ni?","geoLocation":{"latitude":41.24208187,"longitude":1.80755826},"userLang":"es","userLocation":"sitges"},
{"id":450392584608047104,"userId":212327978,"createdAt":"31-mar-2014 0:02:14","inReplyToUserId":-1,"text":"Esos d?as en los que lanzar?as ladrillos a la cara de la gente. Esos d?as.","geoLocation":{"latitude":41.4473695,"longitude":2.17468707},"userLang":"es","userLocation":"Barcelona"},
{"id":450392591293759488,"userId":301484731,"createdAt":"31-mar-2014 0:02:16","inReplyToUserId":724114579,"text":"@ponponwei IO L\u0027HO GI? VISTO UNGH MA QUELLO CON JUN VERO","geoLocation":{"latitude":41.4110424,"longitude":2.1863153},"userLang":"it","userLocation":"???"},
{"id":450392599355203584,"userId":383234535,"createdAt":"31-mar-2014 0:02:18","inReplyToUserId":-1,"text":"Bueno ahora que son las 0:01, a que soy el ?nico q te felicita por tus 31 a?os y un d?a???Pues eso!! @PijusMagnificvs http://t.co/wyoEBhcJmi","geoLocation":{"latitude":41.41499011,"longitude":2.18166061},"userLang":"es","userLocation":"Barcelona"},
{"id":450392612579848192,"userId":1339816290,"createdAt":"31-mar-2014 0:02:21","inReplyToUserId":1956678786,"text":"@JDrewBSavedMe you\u0027re welcome :)","userLang":"en-gb","userLocation":"Stuck in the Moment"},
{"id":450392615641686016,"userId":2211784986,"createdAt":"31-mar-2014 0:02:22","inReplyToUserId":-1,"text":"Cuarto Milenio da una verg?enza ajena incre?ble.","userLang":"es","userLocation":"Senderos de Traici?n"},
{"id":450392640052527104,"userId":2448136684,"createdAt":"31-mar-2014 0:02:27","inReplyToUserId":-1,"text":"Iloverollerblade## http://t.co/8EslkAUWwX","geoLocation":{"latitude":41.38456493,"longitude":2.17853086},"userLang":"es","userLocation":"Barcelona"},
{"id":450392641868668929,"userId":1975619018,"createdAt":"31-mar-2014 0:02:28","inReplyToUserId":-1,"text":"Bueenas noches #twitteroff","geoLocation":{"latitude":41.6126096,"longitude":2.2717795},"userLang":"es","userLocation":"Ballerina?"},
{"id":450392643030503424,"userId":242511903,"createdAt":"31-mar-2014 0:02:28","inReplyToUserId":-1,"text":"Me voy a ver s? pillo un spoiler de #TheWalkingDead que lo est?n poniendo en EEUU y es el ?ltimo hasta octubre","geoLocation":{"latitude":41.37656218,"longitude":2.17212254},"userLang":"es","userLocation":"Ravalkist?n (Barcelona) "},
{"id":450392684419878913,"userId":65605809,"createdAt":"31-mar-2014 0:02:38","inReplyToUserId":-1,"text":"\u0027Somiadors caminant per la corda fluixa\u0027 ?","geoLocation":{"latitude":41.68905924,"longitude":2.48755317},"userLang":"ca","userLocation":"Barcelona; Catalunya"},
{"id":450392684688330753,"userId":170675940,"createdAt":"31-mar-2014 0:02:38","inReplyToUserId":244512124,"text":"@XR8791 @gzalbidea y una,solo una, cosa que ten?ais que hacer,que era ganar ayer,y ni eso...","geoLocation":{"latitude":41.39299138,"longitude":2.13090316},"userLang":"ca","userLocation":"Terrassa, Catalunya"},
{"id":450392687754350592,"userId":917663282,"createdAt":"31-mar-2014 0:02:39","inReplyToUserId":377539059,"text":"@caguirre2000 -?Y qu? se logra con que pidan perd?n?","geoLocation":{"latitude":41.54873289,"longitude":2.10594451},"userLang":"es","userLocation":""},
{"id":450392711104049153,"userId":243174151,"createdAt":"31-mar-2014 0:02:44","inReplyToUserId":-1,"text":"Alfinal el tiempo me da la raz?n, y Djukic no era el culpable ni era tan malo...!","geoLocation":{"latitude":41.438938,"longitude":2.2313627},"userLang":"es","userLocation":"Badalona"},
{"id":450392734457921536,"userId":1547049247,"createdAt":"31-mar-2014 0:02:50","inReplyToUserId":-1,"text":"Los comentaristas de #GolTV confunden a #Carbonero y a #Balanta JAJAJA","userLang":"en-gb","userLocation":"Barcelona"},
{"id":450392735540064256,"userId":739206751,"createdAt":"31-mar-2014 0:02:50","inReplyToUserId":-1,"text":"La ni?a mas feliz del mundo ???","geoLocation":{"latitude":41.37622079,"longitude":2.12649298},"userLang":"es","userLocation":""},
{"id":450392736177606656,"userId":283013370,"createdAt":"31-mar-2014 0:02:50","inReplyToUserId":-1,"text":"MY HEAD EXPLODEEEE! #ULTRALIVE","userLang":"es","userLocation":"Barcelona,Spain"},
{"id":450392745094709248,"userId":995842400,"createdAt":"31-mar-2014 0:02:52","inReplyToUserId":493032256,"text":"@Deryatomic bonne nuit","geoLocation":{"latitude":41.4382531,"longitude":2.1583033},"userLang":"fr","userLocation":"Paris XIX"},
{"id":450392762534625280,"userId":294616747,"createdAt":"31-mar-2014 0:02:57","inReplyToUserId":1034669204,"text":"@DaaniSantamaria gracias ti de verdad..\n#paleobattlerun #paleotraining #bepaleo","geoLocation":{"latitude":41.40177548,"longitude":2.15211157},"userLang":"es","userLocation":"Lanzarote"},
{"id":450392763599949824,"userId":1878801782,"createdAt":"31-mar-2014 0:02:57","inReplyToUserId":1034669204,"text":"@DaaniSantamaria gracias ti de verdad..\n#paleobattlerun #paleotraining #bepaleo","geoLocation":{"latitude":41.40177548,"longitude":2.15211157},"userLang":"es","userLocation":"Espa?a"},
{"id":450392816678871040,"userId":1673739380,"createdAt":"31-mar-2014 0:03:10","inReplyToUserId":-1,"text":"?? http://t.co/G0Au376MRq","geoLocation":{"latitude":41.38465546,"longitude":2.18173184},"userLang":"pt","userLocation":"videira sc "},
{"id":450392818994147328,"userId":370688731,"createdAt":"31-mar-2014 0:03:10","inReplyToUserId":-1,"text":"?Sabes cuando no encuentras el movil y resulta que lo tienes en la mano? Pues as? con todo","userLang":"es","userLocation":"madrid"},
{"id":450392819728121856,"userId":383676844,"createdAt":"31-mar-2014 0:03:10","inReplyToUserId":624775399,"text":"Potser an?lisi simple xo... RT ?@DocentsPrec: Pq diem NO a aqest decret d plantilles i provisi? de llocs de?treball? http://t.co/l1sUK0BEQe?","geoLocation":{"latitude":41.6150605,"longitude":2.29106232},"userLang":"ca","userLocation":""},
{"id":450392836417269760,"userId":523462835,"createdAt":"31-mar-2014 0:03:14","inReplyToUserId":57099808,"text":"@davidbisbal Buenas noches desde Espa?a. Subenos alguna fotito de la prueba de sonido por faaa. Disfruta mi ni?o!! #elmundorendidoatuspies ?","geoLocation":{"latitude":41.584136,"longitude":2.179893},"userLang":"es","userLocation":""},
{"id":450392837491007488,"userId":95927604,"createdAt":"31-mar-2014 0:03:15","inReplyToUserId":254104901,"text":"@RamonCarner @LluisBassas @davidOlmedoH @PENITENCIAGITE1 @tonicantona \nDec ser un bitxo raro jo. Ni un ni l\u0027altre.\nVas estar el 11S2012?","geoLocation":{"latitude":41.27911779,"longitude":1.97533727},"userLang":"en","userLocation":"Castelldefels and Phx"},
{"id":450392841345581056,"userId":978807504,"createdAt":"31-mar-2014 0:03:15","inReplyToUserId":-1,"text":"desde que esta Calderon, el Betis se a puesto #A5 de la salvacion @InfoRBB","userLang":"es","userLocation":"El Ronquillo"},
{"id":450392841580474368,"userId":1163157535,"createdAt":"31-mar-2014 0:03:15","inReplyToUserId":-1,"text":"Une f?te pas comme les autres! Arabes Francophones @Equinoxradio ? Notre voix pourrait-elle ?tre ?couter ? #On_Air http://t.co/2HMbInphos","geoLocation":{"latitude":41.408623,"longitude":2.1501802},"userLang":"es","userLocation":"Bcn,Malaga,Marrakesh,Abu Dhabi"},
{"id":450392846680731648,"userId":559838079,"createdAt":"31-mar-2014 0:03:17","inReplyToUserId":-1,"text":"Dios m?o. DIOS. No words. #UltraSpain","userLang":"es","userLocation":"BCN"},
{"id":450392853609738240,"userId":595619618,"createdAt":"31-mar-2014 0:03:18","inReplyToUserId":-1,"text":"Yo pasando fotos a @Danir_1 sobada \u003e\u003e\u003e\u003e\u003e\u003e\u003e\u003e\u003e","geoLocation":{"latitude":41.5292068,"longitude":1.8507177},"userLang":"ca","userLocation":"Catalunya."},
{"id":450392855375540224,"userId":389372114,"createdAt":"31-mar-2014 0:03:19","inReplyToUserId":313415630,"text":"@isadeljunco jajajajajajajajajaa pero total!!!!!!! aunq yo ni eso","geoLocation":{"latitude":41.4145054,"longitude":2.2218216},"userLang":"es","userLocation":""},
{"id":450392871217422336,"userId":395330786,"createdAt":"31-mar-2014 0:03:23","inReplyToUserId":282953839,"text":"@FRAN__LARA  muchas felicidades :D disfruta de tu dia que te lo mereces un beso enorme \u003c3","userLang":"es","userLocation":"barcelona"},
{"id":450392874379935744,"userId":849859525,"createdAt":"31-mar-2014 0:03:23","inReplyToUserId":-1,"text":"Buenas noches.","geoLocation":{"latitude":41.2700662,"longitude":1.986791},"userLang":"es","userLocation":"Moratalaz, Madrid. 28CERO30"},
{"id":450392914464890882,"userId":324873600,"createdAt":"31-mar-2014 0:03:33","inReplyToUserId":-1,"text":"Para Steam ! I7N7Z-5TLR2-9RYC9 Pixel piracy","userLang":"es","userLocation":"Madrid"},
{"id":450392941715288064,"userId":622012862,"createdAt":"31-mar-2014 0:03:39","inReplyToUserId":-1,"text":"Solo eh de decir que buena noches ma?ana eh un dia duro","geoLocation":{"latitude":41.37232567,"longitude":2.16506123},"userLang":"es","userLocation":"BCN"},
{"id":450392942893879296,"userId":262890354,"createdAt":"31-mar-2014 0:03:40","inReplyToUserId":-1,"text":"Vamos con locke","geoLocation":{"latitude":41.4954495,"longitude":2.0336393},"userLang":"es","userLocation":"Barcelona, Catalu?a."},
{"id":450392946811342850,"userId":622012862,"createdAt":"31-mar-2014 0:03:41","inReplyToUserId":-1,"text":"(cmo mi pene)","geoLocation":{"latitude":41.37232567,"longitude":2.16506123},"userLang":"es","userLocation":"BCN"},
{"id":450392959180374016,"userId":80322695,"createdAt":"31-mar-2014 0:03:44","inReplyToUserId":-1,"text":"\"@laSextaTV Ya puedes ver el programa completo de #3diasErrenteria d @salvadostv @Salvadosen ATRESPLAYER\" y en la smart tv no? No va la app!","geoLocation":{"latitude":41.4255395,"longitude":2.1760349},"userLang":"en","userLocation":""},
{"id":450392977853407232,"userId":623594433,"createdAt":"31-mar-2014 0:03:48","inReplyToUserId":-1,"text":"Thanks for the #photooftheday @styleinlima: #Sunday #afternoon at @lemeridienbcn. #wow #luxury? http://t.co/8W9kRUbCYz","geoLocation":{"latitude":41.38756283,"longitude":2.16272455},"userLang":"en","userLocation":""},
{"id":450392986753703936,"userId":370313302,"createdAt":"31-mar-2014 0:03:50","inReplyToUserId":-1,"text":"JACK Ultra #ULTRALIVE","geoLocation":{"latitude":41.60196748,"longitude":2.28605019},"userLang":"es","userLocation":""},
{"id":450392991845597184,"userId":95424459,"createdAt":"31-mar-2014 0:03:51","inReplyToUserId":-1,"text":"http://t.co/T0gtaillKf","userLang":"es","userLocation":"Barcelona"},
{"id":450392993154232321,"userId":1544294910,"createdAt":"31-mar-2014 0:03:52","inReplyToUserId":-1,"text":"Sigo a mi rollo, que el tuyo no lo entiendo","geoLocation":{"latitude":41.44679357,"longitude":2.23876738},"userLang":"es","userLocation":"Badalona, Barcelona. "},
{"id":450392999890255872,"userId":257718816,"createdAt":"31-mar-2014 0:03:53","inReplyToUserId":-1,"text":"Mira tu, com a #LHospitalet: http://t.co/fp4symjZPc #LHvolDecidir #NouLH","userLang":"ca","userLocation":"Palacio de la Moncloa, M?trix"},
{"id":450393058358878208,"userId":371211573,"createdAt":"31-mar-2014 0:04:07","inReplyToUserId":-1,"text":"Anda....ahora #Imageshack es de pago? Pues byebye,no hago ni el trial de 30 dias...con lo bien q iba el uploader...alguna alternativa f?cil?","userLang":"ca","userLocation":"Barcelona"},
{"id":450393064205742080,"userId":212327978,"createdAt":"31-mar-2014 0:04:09","inReplyToUserId":-1,"text":"A veces la personalidad reluce por su ausencia :-)","geoLocation":{"latitude":41.44731634,"longitude":2.1746837},"userLang":"es","userLocation":"Barcelona"},
{"id":450393070375563264,"userId":1339816290,"createdAt":"31-mar-2014 0:04:10","inReplyToUserId":-1,"text":"shall i post a selfie idk","userLang":"en-gb","userLocation":"Stuck in the Moment"},
{"id":450393071960981504,"userId":87042194,"createdAt":"31-mar-2014 0:04:10","inReplyToUserId":-1,"text":"\"Franco es como mi padre\" (Rey Juan Carlos), seg?n dice la sobrina de Pilar Polo. Docu Canal33. A ver si queda claro de una vez!","geoLocation":{"latitude":41.3790607,"longitude":2.1468731},"userLang":"ca","userLocation":"Barcelona"},
{"id":450393078646734848,"userId":21851561,"createdAt":"31-mar-2014 0:04:12","inReplyToUserId":-1,"text":"Just bought @taylorotwell \"Laravel: From Apprentice to Artisan\" book. I finally feel ready to dig into it thanks to @laracasts vids #Laravel","geoLocation":{"latitude":41.6095684,"longitude":1.7415802},"userLang":"en","userLocation":"Barcelona"},
{"id":450393082476109824,"userId":42820419,"createdAt":"31-mar-2014 0:04:13","inReplyToUserId":-1,"text":"Flags need to be banned from festivals already","geoLocation":{"latitude":41.380218,"longitude":2.16048384},"userLang":"en","userLocation":""},
{"id":450393085596667904,"userId":189247931,"createdAt":"31-mar-2014 0:04:14","inReplyToUserId":2338811527,"text":"@Daseinsart LINK.","userLang":"en","userLocation":"Pyke"},
{"id":450393089736470528,"userId":1547049247,"createdAt":"31-mar-2014 0:04:15","inReplyToUserId":-1,"text":"ZZZZZZZZZZZZ, esa es mi reacci?n del #PT en la #Bombonera por el #Supercl?sico.","userLang":"en-gb","userLocation":"Barcelona"},
{"id":450393096086650880,"userId":326098800,"createdAt":"31-mar-2014 0:04:16","inReplyToUserId":234901881,"text":"@vakkandi maria guapa","userLang":"ca","userLocation":"Tortosa - TE ? Catalonia ? "},
{"id":450393102176747520,"userId":1591858471,"createdAt":"31-mar-2014 0:04:18","inReplyToUserId":-1,"text":"Y PENSAR QUE nV PERDIERON LA PRIMERA RONDA Y AHORA ESTAN A LA FINAL GRACIAS A LA LB http://t.co/1Ye6mGwStL #LETSGOnV","userLang":"es","userLocation":"CATALUNYA! L\u0027Empord? "},
{"id":450393101434355712,"userId":24293995,"createdAt":"31-mar-2014 0:04:17","inReplyToUserId":-1,"text":"El que nunca canto winnie the pooh, se hizo pupu no tuvo infancia","geoLocation":{"latitude":41.41076726,"longitude":2.17840018},"userLang":"en","userLocation":""},
{"id":450393112347963392,"userId":495009558,"createdAt":"31-mar-2014 0:04:20","inReplyToUserId":267155138,"text":"@NaomyNurilays si que se va hahahahaha ya te lo dijo","geoLocation":{"latitude":41.3714456,"longitude":2.1220662},"userLang":"es","userLocation":""},
{"id":450393122787577856,"userId":279599211,"createdAt":"31-mar-2014 0:04:23","inReplyToUserId":-1,"text":"Nadie superar? mi felicitaci?n a @tonamolas. Espero que disfrutes de mi nota de voz cantando El ciclo sin fin. Ah y de los 18, s? :D","geoLocation":{"latitude":41.38497412,"longitude":2.13169699},"userLang":"es","userLocation":"#InstaSanse. Best tim ebah."},
{"id":450393132249923585,"userId":14501084,"createdAt":"31-mar-2014 0:04:25","inReplyToUserId":47119375,"text":"@gvssr @zkahn94 @SpencerL stuff like this really boils my blood. The damage religion does to normal people. :(","userLang":"en","userLocation":"Barcelona, Spain"},
{"id":450393134628102144,"userId":257554839,"createdAt":"31-mar-2014 0:04:25","inReplyToUserId":-1,"text":"Por fin la entrada para el festival Telecogresca, ya era hora de ir a un concierto de SKA-P!? http://t.co/z85LJ4QsjD","geoLocation":{"latitude":41.3806919,"longitude":2.1806933},"userLang":"es","userLocation":"Rep?blica Espa?ola."},
{"id":450393154639122432,"userId":2448136684,"createdAt":"31-mar-2014 0:04:30","inReplyToUserId":-1,"text":"125a?os#fantastica## http://t.co/LFFDurfCyI","geoLocation":{"latitude":41.3844677,"longitude":2.17858729},"userLang":"es","userLocation":"Barcelona"},
{"id":450393163535237120,"userId":242511903,"createdAt":"31-mar-2014 0:04:32","inReplyToUserId":57967465,"text":"@MickDdr Bueno, si yo era por joder a mis amigos :P","geoLocation":{"latitude":41.37636358,"longitude":2.17182789},"userLang":"es","userLocation":"Ravalkist?n (Barcelona) "},
{"id":450393175740645376,"userId":495009558,"createdAt":"31-mar-2014 0:04:35","inReplyToUserId":309328072,"text":"@SwuaGgx3 ahhah oye eso","geoLocation":{"latitude":41.3714456,"longitude":2.1220662},"userLang":"es","userLocation":""},
{"id":450393177959456768,"userId":437749104,"createdAt":"31-mar-2014 0:04:36","inReplyToUserId":-1,"text":"Listo para #dormir . Ma?ana de nuevo madrug?n .. !! #buenasnoches ?","geoLocation":{"latitude":41.40068686,"longitude":2.18083338},"userLang":"es","userLocation":"Barcelona"},
{"id":450393204207415297,"userId":1931527405,"createdAt":"31-mar-2014 0:04:42","inReplyToUserId":-1,"text":"http://t.co/lIUfid9hck","geoLocation":{"latitude":41.3963096,"longitude":2.174825},"userLang":"es","userLocation":"BARCELONA"},
{"id":450393211237052416,"userId":559838079,"createdAt":"31-mar-2014 0:04:44","inReplyToUserId":-1,"text":"Y Azaelia Banks. Telita. #UltraSpain","userLang":"es","userLocation":"BCN"},
{"id":450393227913609216,"userId":317615062,"createdAt":"31-mar-2014 0:04:48","inReplyToUserId":2411226216,"text":"@FUERACENIZOS @Egia9 te estas definiendo a ti mismo no? Pensamiento ?nico se llama, obediencia y no salirse del reba?o como buena oveja","geoLocation":{"latitude":41.24210723,"longitude":1.80754965},"userLang":"es","userLocation":"sitges"},
{"id":450393277700001792,"userId":703538966,"createdAt":"31-mar-2014 0:04:59","inReplyToUserId":1190721607,"text":"@Chiringuitofans @JDamiann @jpedrerol @As_TomasRoncero @alvarobenitopig .jajjajajajajajajajjjajjajajjajajjjaja,me boy a dormir,,,","userLang":"es","userLocation":"espa?a"},
{"id":450393294049406980,"userId":1384110594,"createdAt":"31-mar-2014 0:05:03","inReplyToUserId":-1,"text":"S?n les dotze i cinc minuts de la matinada","geoLocation":{"latitude":41.545639,"longitude":1.893817},"userLang":"ca","userLocation":"Olesa de Montserrat"},
{"id":450393304778420224,"userId":254564096,"createdAt":"31-mar-2014 0:05:06","inReplyToUserId":-1,"text":"Anar-se\u0027n a dormir al ritme de #laxnbusto http://t.co/9CGKsojzUH","geoLocation":{"latitude":41.38216612,"longitude":2.13663661},"userLang":"es","userLocation":""},
{"id":450393321543061504,"userId":561983649,"createdAt":"31-mar-2014 0:05:10","inReplyToUserId":950488326,"text":"@jo_ilyak #vuelta por #Barcelona #divas #ohyeah @ Rambla de Catalunya http://t.co/RQbYkTeNx1","geoLocation":{"latitude":41.39015524,"longitude":2.16480017},"userLang":"es","userLocation":"Las Palmas de Gran Canaria"},
{"id":450393340786532352,"userId":44352657,"createdAt":"31-mar-2014 0:05:15","inReplyToUserId":300771865,"text":"@greentea_live hi :)","userLang":"es","userLocation":"Barcelona"},
{"id":450393354162163713,"userId":921448646,"createdAt":"31-mar-2014 0:05:18","inReplyToUserId":-1,"text":"Je suis ?go?ste, il n\u0027y a aucun moyen que je puisse te partager.","userLang":"fr","userLocation":""},
{"id":450393369005817856,"userId":347887458,"createdAt":"31-mar-2014 0:05:21","inReplyToUserId":-1,"text":"Mor?os de envidia @ladygaga @beyonce","userLang":"es","userLocation":"Canal Divinity"},
{"id":450393373468549122,"userId":301484731,"createdAt":"31-mar-2014 0:05:22","inReplyToUserId":724114579,"text":"@ponponwei TI HO PURE FATTO SPOILER PERDONAME NI?A","geoLocation":{"latitude":41.4110034,"longitude":2.1851426},"userLang":"it","userLocation":"???"},
{"id":450393395358621697,"userId":2348599262,"createdAt":"31-mar-2014 0:05:28","inReplyToUserId":-1,"text":"Si el Estado apoyase la educaci?n ciudadana, el respeto mutuo y la responsabilidad individual no ser?a un Estado ?nos entendemos, verdad?","userLang":"es","userLocation":""},
{"id":450393399074754560,"userId":1591858471,"createdAt":"31-mar-2014 0:05:28","inReplyToUserId":-1,"text":"Pero aun as? creo, repito. CREO que va a ganar con 4-0 coL","userLang":"es","userLocation":"CATALUNYA! L\u0027Empord? "},
{"id":450393405940842496,"userId":322629315,"createdAt":"31-mar-2014 0:05:30","inReplyToUserId":-1,"text":"\"La certificaci?n del matrimonio civil celebrado en esta ciudad con fecha 29 de Mayo de 1.937, entre? http://t.co/yW359UIa2l","geoLocation":{"latitude":41.53675,"longitude":2.43386667},"userLang":"ca","userLocation":""},
{"id":450393416019750912,"userId":121289955,"createdAt":"31-mar-2014 0:05:32","inReplyToUserId":-1,"text":"????????????????????????????????????????????? ww\n?????????????????????????????????? ???~ :D","userLang":"es","userLocation":"Barcelona, Spain"},
{"id":450393424643235840,"userId":117364453,"createdAt":"31-mar-2014 0:05:35","inReplyToUserId":1043739030,"text":"@MeyerBitan j\u0027me fais pas claquer pour ?a","geoLocation":{"latitude":41.44367113,"longitude":2.16887338},"userLang":"fr","userLocation":"Paris XIX"},
{"id":450393427184984064,"userId":14501084,"createdAt":"31-mar-2014 0:05:35","inReplyToUserId":35383,"text":"@chartier an interesting thought. Hardware and software can advance and improve in tandem. I don?t think iOS 7 is THAT bad","userLang":"en","userLocation":"Barcelona, Spain"},
{"id":450393442922020864,"userId":588979454,"createdAt":"31-mar-2014 0:05:39","inReplyToUserId":497184664,"text":"@rodrigocoy @GuillermoUtrera @PocoruidoNueces Efectivement, la teva espanya Grande i Libre va ser una merda","userLang":"es","userLocation":"Val?ncia"},
{"id":450393457715322880,"userId":47426445,"createdAt":"31-mar-2014 0:05:42","inReplyToUserId":-1,"text":"It\u0027s not purple, it\u0027s rose red #yeahbuddy @ Echehouse http://t.co/eRPZzK0bnO","geoLocation":{"latitude":41.3730989,"longitude":2.1685459},"userLang":"es","userLocation":"Barcelona, London, L.A."},
{"id":450393467538395136,"userId":245388395,"createdAt":"31-mar-2014 0:05:45","inReplyToUserId":-1,"text":"Palabras solo son palabras ?","geoLocation":{"latitude":41.4453611,"longitude":2.1823016},"userLang":"es","userLocation":"Machala"},
{"id":450393484206542848,"userId":257535758,"createdAt":"31-mar-2014 0:05:49","inReplyToUserId":-1,"text":"Pues si no te gusta la lentitud de Sofia Coppola no mires sus pel?culas pero no me la critiques cenutrio.","userLang":"es","userLocation":"Barcelona"},
{"id":450393491399786496,"userId":2367508454,"createdAt":"31-mar-2014 0:05:50","inReplyToUserId":-1,"text":"Poidcast programa icat-radio entrevista participants sona-9 . Blacksmith som els ultims entrevistats.\n  http://t.co/bcAAsNTK9E","userLang":"es","userLocation":""},
{"id":450393497426989057,"userId":495009558,"createdAt":"31-mar-2014 0:05:52","inReplyToUserId":-1,"text":"Hay Jesuu","geoLocation":{"latitude":41.3714456,"longitude":2.1220662},"userLang":"es","userLocation":""},
{"id":450393507279429632,"userId":2349371992,"createdAt":"31-mar-2014 0:05:54","inReplyToUserId":-1,"text":"vivir para sufrir","userLang":"es","userLocation":"Madrid"},
{"id":450393508869070848,"userId":102390597,"createdAt":"31-mar-2014 0:05:55","inReplyToUserId":-1,"text":"Fuera de lugar.","geoLocation":{"latitude":41.3476446,"longitude":2.1118788},"userLang":"es","userLocation":"Barcelona. "},
{"id":450393521078697985,"userId":714825086,"createdAt":"31-mar-2014 0:05:57","inReplyToUserId":1020901693,"text":"@Maikykrmusic ILY ?","userLang":"es","userLocation":"Pasaje"},
{"id":450393546567471104,"userId":317615062,"createdAt":"31-mar-2014 0:06:04","inReplyToUserId":2411226216,"text":"@FUERACENIZOS @Egia9 sieg heil mein f?hrer!","geoLocation":{"latitude":41.24209156,"longitude":1.80750967},"userLang":"es","userLocation":"sitges"},
{"id":450393555237093376,"userId":14501084,"createdAt":"31-mar-2014 0:06:06","inReplyToUserId":330496178,"text":"@zkahn94 @gvssr @SpencerL now, that I wish I could favourite many more times :)","userLang":"en","userLocation":"Barcelona, Spain"},
{"id":450393555966906368,"userId":1230042265,"createdAt":"31-mar-2014 0:06:06","inReplyToUserId":-1,"text":"Los ojos que mas enamora no son ni verdes , ni azules sino lo tuyos :3","geoLocation":{"latitude":41.5632379,"longitude":1.9947911},"userLang":"es","userLocation":""},
{"id":450393561411117056,"userId":495009558,"createdAt":"31-mar-2014 0:06:07","inReplyToUserId":-1,"text":"Perronaaaaaa","geoLocation":{"latitude":41.3714456,"longitude":2.1220662},"userLang":"es","userLocation":""},
{"id":450393562468073472,"userId":117364453,"createdAt":"31-mar-2014 0:06:07","inReplyToUserId":1043739030,"text":"@MeyerBitan oui oui","geoLocation":{"latitude":41.44367113,"longitude":2.16887338},"userLang":"fr","userLocation":"Paris XIX"},
{"id":450393581581508608,"userId":265195292,"createdAt":"31-mar-2014 0:06:12","inReplyToUserId":265195292,"text":"Cuando lleguemos a 15.000 seguidores #SORTEO de 1 asesor?a curr?culum entre nuestros seguidores que RT! @DonDatosCl http://t.co/U73HrVqIrM","geoLocation":{"latitude":41.38583002,"longitude":2.14987241},"userLang":"es","userLocation":"Chile - Espa?a "},
{"id":450393591681400832,"userId":2393405797,"createdAt":"31-mar-2014 0:06:14","inReplyToUserId":-1,"text":"??? ???? ???? ??? ????? .. !","userLang":"es","userLocation":""},
{"id":450393598056759296,"userId":523462835,"createdAt":"31-mar-2014 0:06:16","inReplyToUserId":1186227721,"text":"@indecentesdb Pero es q EL ES UNICO y para David su p?blico es lo primero.  Una vez mas demostrando q ES EL MAS GRANDE ??","geoLocation":{"latitude":41.5799391,"longitude":2.1819466},"userLang":"es","userLocation":""},
{"id":450393603270254592,"userId":774527406,"createdAt":"31-mar-2014 0:06:17","inReplyToUserId":-1,"text":"????? ???? ??? ???? ????? ??? ??????? ? ??????? ????? ?????? ? ??? ?? ??? ????????? ???? ???? ????? ??????","userLang":"fr","userLocation":"alma"},
{"id":450393610232795136,"userId":242511903,"createdAt":"31-mar-2014 0:06:19","inReplyToUserId":564697093,"text":"@Lucy_MEH los bonobos si que saben. Haz el amor y no la guerra ;)","geoLocation":{"latitude":41.37625482,"longitude":2.17215017},"userLang":"es","userLocation":"Ravalkist?n (Barcelona) "},
{"id":450393634870132736,"userId":1283442097,"createdAt":"31-mar-2014 0:06:25","inReplyToUserId":-1,"text":"The beautiful church of Santa Maria del Mar. #travel #barcelona http://t.co/T0m9lSGRrO","geoLocation":{"latitude":41.38098399,"longitude":2.17691861},"userLang":"en","userLocation":"Belgium"},
{"id":450393670920204288,"userId":301484731,"createdAt":"31-mar-2014 0:06:33","inReplyToUserId":-1,"text":"tutti dormono e quindi guardo vikings :^)","geoLocation":{"latitude":41.4110034,"longitude":2.1851426},"userLang":"it","userLocation":"???"},
{"id":450393677861765120,"userId":117364453,"createdAt":"31-mar-2014 0:06:35","inReplyToUserId":-1,"text":"J\u0027ai hyper mal au ventre","geoLocation":{"latitude":41.44366589,"longitude":2.16890354},"userLang":"fr","userLocation":"Paris XIX"},
{"id":450393687332519936,"userId":495009558,"createdAt":"31-mar-2014 0:06:37","inReplyToUserId":-1,"text":"Hahhaahhaa","geoLocation":{"latitude":41.3714456,"longitude":2.1220662},"userLang":"es","userLocation":""},
{"id":450393687382843392,"userId":366066387,"createdAt":"31-mar-2014 0:06:37","inReplyToUserId":140420431,"text":"@akimikami ????????????","userLang":"ja","userLocation":""},
{"id":450393689203175424,"userId":1591858471,"createdAt":"31-mar-2014 0:06:38","inReplyToUserId":780870918,"text":"@SiiKzGG No, llevan 2 mapas de ventaja y si es BO11 con 4-0 + 2 serian 6-0 y ya ganan","userLang":"es","userLocation":"CATALUNYA! L\u0027Empord? "},
{"id":450393713542721538,"userId":14501084,"createdAt":"31-mar-2014 0:06:43","inReplyToUserId":18714664,"text":"@OhMDee @zkahn94 @JshChnz @LarkNews I don?t know if that makes it worse or better","userLang":"en","userLocation":"Barcelona, Spain"},
{"id":450393712900972544,"userId":155286230,"createdAt":"31-mar-2014 0:06:43","inReplyToUserId":-1,"text":"I go to Africa in 6 days...where has the time gone?! ?","geoLocation":{"latitude":41.38636387,"longitude":2.16751011},"userLang":"en","userLocation":"Lugano, Switzerland "},
{"id":450393727786565633,"userId":94387547,"createdAt":"31-mar-2014 0:06:47","inReplyToUserId":-1,"text":"Klk dicen mis queridos lum?nicos","geoLocation":{"latitude":41.4282593,"longitude":2.21694092},"userLang":"es","userLocation":"Espa?a Barcelona"},
{"id":450393728742854657,"userId":1575999300,"createdAt":"31-mar-2014 0:06:47","inReplyToUserId":567513309,"text":"@davidalvarezjim VAMOS DEIVID PERO QUE TE PASA MACHO.......","userLang":"es","userLocation":""},
{"id":450393729476882433,"userId":1308595128,"createdAt":"31-mar-2014 0:06:47","inReplyToUserId":-1,"text":"Entrar a la habitaci?n de mi hermana que est?  so?ando y diga :necesito m?s gente para jugar! WTF JAJJAJAJJAJAAJAJJ","geoLocation":{"latitude":41.4387384,"longitude":2.1929008},"userLang":"es","userLocation":"Barcelona"},
{"id":450393750163173376,"userId":245388395,"createdAt":"31-mar-2014 0:06:52","inReplyToUserId":-1,"text":"Yo tambi?n lo pensaba.","geoLocation":{"latitude":41.4453359,"longitude":2.1823075},"userLang":"es","userLocation":"Machala"},
{"id":450393763786264576,"userId":1565195281,"createdAt":"31-mar-2014 0:06:55","inReplyToUserId":-1,"text":"Tengo una perfumeria on-line hecha con sistema presta-hop en venta. Tien 8000 perfumes todos actualizados. 2500 Euros. Se vende con domin.??","geoLocation":{"latitude":41.82332989,"longitude":1.89634303},"userLang":"es","userLocation":"Barcelona616 71 84 64"},
{"id":450393769280823296,"userId":495009558,"createdAt":"31-mar-2014 0:06:57","inReplyToUserId":-1,"text":"No Vamos En Un Viaje","geoLocation":{"latitude":41.3714456,"longitude":2.1220662},"userLang":"es","userLocation":""},
{"id":450393777208037377,"userId":1421410296,"createdAt":"31-mar-2014 0:06:59","inReplyToUserId":-1,"text":"No tengo sue?o:(","geoLocation":{"latitude":41.4145872,"longitude":2.1967412},"userLang":"es","userLocation":"Barcelona."},
{"id":450393793133817857,"userId":1384110594,"createdAt":"31-mar-2014 0:07:02","inReplyToUserId":-1,"text":"?s mig quart d\u0027una de la matinada","geoLocation":{"latitude":41.545639,"longitude":1.893817},"userLang":"ca","userLocation":"Olesa de Montserrat"},