{"id":453946225201795072,"userId":1627438358,"createdAt":"09-abr-2014 19:23:08","inReplyToUserId":634485781,"text":"@Louiise_Che Derrien :) Je suis une amie ? @Julie_Puma_Fr .","userLang":"fr","userLocation":"Jorge \u003d Un dieux !! ? "},
{"id":453946229643575296,"userId":752928986,"createdAt":"09-abr-2014 19:23:09","inReplyToUserId":-1,"text":"new profil","userLang":"fr","userLocation":"farrah"},
{"id":453946236304109568,"userId":83753635,"createdAt":"09-abr-2014 19:23:11","inReplyToUserId":-1,"text":"Happy #version of #me !!! #gaud? #parkg?ell #barcelona #blessed #loved #happy  #woman #sofia @ Parc G?ell http://t.co/JSRnMLwae7","geoLocation":{"latitude":41.41366957,"longitude":2.15292659},"userLang":"en","userLocation":""},
{"id":453946242268397568,"userId":1702304630,"createdAt":"09-abr-2014 19:23:12","inReplyToUserId":-1,"text":"Gitarrenfestival in #Barcelona.\nhttp://t.co/yQ50RHyXka\nBis zum 05.07.2014. #Musik #Konzerte #Livemusik http://t.co/njnxFpZc8A","geoLocation":{"latitude":41.3915705,"longitude":2.1580942},"userLang":"de","userLocation":""},
{"id":453946254054400001,"userId":193193114,"createdAt":"09-abr-2014 19:23:15","inReplyToUserId":-1,"text":"Senyor @Quimkong hem provat d\u0027 entrar amb la senyoreta @Guillerminar\n#misionimposible\nEstem fent 1 copeta... http://t.co/VFIYGXAjpt","geoLocation":{"latitude":41.38904247,"longitude":2.13313599},"userLang":"es","userLocation":"sigueme..."},
{"id":453946257988681729,"userId":497082269,"createdAt":"09-abr-2014 19:23:16","inReplyToUserId":248810635,"text":"@Bodastory gracias guapa","geoLocation":{"latitude":41.4464979,"longitude":1.9778619},"userLang":"es","userLocation":"espa?a"},
{"id":453946261201506304,"userId":2350281440,"createdAt":"09-abr-2014 19:23:17","inReplyToUserId":-1,"text":"Joo que me e quedado con ganas de m?s #Notici?nCloverEnDel40Al1","geoLocation":{"latitude":41.4764038,"longitude":2.2818864},"userLang":"es","userLocation":"Montgat Nord"},
{"id":453946270886158336,"userId":68968221,"createdAt":"09-abr-2014 19:23:19","inReplyToUserId":-1,"text":"Just began a running workout using #Endomondo. Follow me live: http://t.co/doMLHjpjOs","geoLocation":{"latitude":41.375897,"longitude":2.117309},"userLang":"es","userLocation":"Barcelona"},
{"id":453946289567563776,"userId":217511601,"createdAt":"09-abr-2014 19:23:24","inReplyToUserId":-1,"text":"\"@Fotlipou: Doncs aix?. http://t.co/6qnD8lZXii\"\nEstamos en ello !!!!!","geoLocation":{"latitude":41.6904309,"longitude":2.4579364},"userLang":"es","userLocation":"Sant Celoni #BaixMontseny"},
{"id":453946354809982977,"userId":887407902,"createdAt":"09-abr-2014 19:23:39","inReplyToUserId":-1,"text":"La rigurosidad en no saltarse la constituci?n para Catalu?a no es la misma que para hacer cumplir el art?culo 47 sobre la vivienda digna","userLang":"es","userLocation":"catalunya"},
{"id":453946368802193409,"userId":338284916,"createdAt":"09-abr-2014 19:23:42","inReplyToUserId":-1,"text":"Bocata love en la plaza (@ Museu d\u0027Hist?ria de Barcelona (MUHBA) - @barcelona_cat w/ @fisgona) http://t.co/rYQnek2FZ8","geoLocation":{"latitude":41.38397198,"longitude":2.17766904},"userLang":"es","userLocation":"artRAVE: Sector 107"},
{"id":453946388284723201,"userId":2249001318,"createdAt":"09-abr-2014 19:23:47","inReplyToUserId":-1,"text":"byeeee guys","userLang":"en","userLocation":""},
{"id":453946390633517056,"userId":437433929,"createdAt":"09-abr-2014 19:23:48","inReplyToUserId":-1,"text":"Just posted a photo @ Hotel Vincci Bit, Barcelona http://t.co/cSClTr3A29","geoLocation":{"latitude":41.41135738,"longitude":2.21198031},"userLang":"ru","userLocation":""},
{"id":453946390763565056,"userId":49021851,"createdAt":"09-abr-2014 19:23:48","inReplyToUserId":111392126,"text":"@SartoN_ ilmionome?maipi?","geoLocation":{"latitude":41.392997,"longitude":2.1715783},"userLang":"en","userLocation":"Barcelona, Spain"},
{"id":453946398145515520,"userId":585524462,"createdAt":"09-abr-2014 19:23:49","inReplyToUserId":712816078,"text":"@5wa6riy @mohmedLamy ??? ?? ????? ?????? ?? ??? ??????? ???\n??? ?????? ??? ???? ??? ??????\n??? ?????","userLang":"fr","userLocation":"Espagne?Madrid"},
{"id":453946401685516288,"userId":2350281440,"createdAt":"09-abr-2014 19:23:50","inReplyToUserId":-1,"text":"AAAAAAAAAH!!!! No me busqueis que ya estoy muerta :$ #Notici?nCloverEnDel40Al1","geoLocation":{"latitude":41.4764019,"longitude":2.2818961},"userLang":"es","userLocation":"Montgat Nord"},
{"id":453946429724442624,"userId":870518892,"createdAt":"09-abr-2014 19:23:57","inReplyToUserId":2287577513,"text":"@IakiArgi1 jajajaa gracias a internet me siento cerca muy cerca de Vanesa pero espero que algun dia lo este de verdas","userLang":"es","userLocation":"Miss Alicante 1998"},
{"id":453946437504860160,"userId":468813901,"createdAt":"09-abr-2014 19:23:59","inReplyToUserId":-1,"text":"#frac1  anaconda it\u0027s here","geoLocation":{"latitude":41.34690236,"longitude":2.03919158},"userLang":"ca","userLocation":""},
{"id":453946437471338496,"userId":209477124,"createdAt":"09-abr-2014 19:23:59","inReplyToUserId":7556392,"text":"?@Invertia: #Bankia inicia la venta del 4,94% que posee en Iberdrola http://t.co/C5My96UnB4 #Empresas? se reparten el botin","geoLocation":{"latitude":41.48227494,"longitude":2.18827029},"userLang":"en","userLocation":"Barcelona"},
{"id":453946460380606464,"userId":124181440,"createdAt":"09-abr-2014 19:24:04","inReplyToUserId":488452871,"text":"RT@Neumosur: Casi el 20% de las personas con #EPOC contin?an fumando pese a las recomendaciones m?dicas http://t.co/ITsJ3XqnFq?","geoLocation":{"latitude":41.39638444,"longitude":2.17028167},"userLang":"es","userLocation":"Barcelona"},
{"id":453946474481848321,"userId":752928986,"createdAt":"09-abr-2014 19:24:08","inReplyToUserId":1061654220,"text":"@Plante_Verte T\u0027as vraiment aucun respect","userLang":"fr","userLocation":"farrah"},
{"id":453946476805505026,"userId":897804372,"createdAt":"09-abr-2014 19:24:08","inReplyToUserId":-1,"text":"En la master class de moda en @topic por @ines_AR3! #topic #estrelladamm #yamamay http://t.co/8f6StjMqoN","geoLocation":{"latitude":41.39601394,"longitude":2.15608911},"userLang":"es","userLocation":"Espa?a"},
{"id":453946479301103616,"userId":710970006,"createdAt":"09-abr-2014 19:24:09","inReplyToUserId":-1,"text":"Vaaaali? la penaa (8)","geoLocation":{"latitude":41.3998923,"longitude":2.176274},"userLang":"es","userLocation":"Moj?car (Almer?a)"},
{"id":453946480106434560,"userId":32909629,"createdAt":"09-abr-2014 19:24:09","inReplyToUserId":358254292,"text":"#PROU #EstemPreparats ?@Piulador_CATALA: HIP?CRITES! http://t.co/z1PUHyuXTx? @tonialba @dnicatala @enrnavdom @TostDe @CatDiuProu @araomai","geoLocation":{"latitude":41.42291559,"longitude":2.18477225},"userLang":"ca","userLocation":"V ||*|| BCN - Catalunya"},
{"id":453946486800531456,"userId":486762622,"createdAt":"09-abr-2014 19:24:11","inReplyToUserId":801170965,"text":"@cosasdecolette @eidergorostiza kizas mi punto d vista ya ste un tanto exento de feromonas, hahahaha","geoLocation":{"latitude":41.35870905,"longitude":2.07859851},"userLang":"es","userLocation":"Catalunya | Norge | Deutchland"},
{"id":453946497370165249,"userId":1428799938,"createdAt":"09-abr-2014 19:24:13","inReplyToUserId":-1,"text":"#Inmigration #policies by #Obama http://t.co/y3kg9DhjZ2","geoLocation":{"latitude":41.38907946,"longitude":2.16799271},"userLang":"es","userLocation":"Barcelona - Roma"},
{"id":453946497881890816,"userId":227263416,"createdAt":"09-abr-2014 19:24:13","inReplyToUserId":-1,"text":"I\u0027m at B?nker del Carmel (Barcelona) http://t.co/qIg7CQ0ZAb","geoLocation":{"latitude":41.419357,"longitude":2.161688},"userLang":"es","userLocation":"Barcelona"},
{"id":453946507562323968,"userId":137357450,"createdAt":"09-abr-2014 19:24:15","inReplyToUserId":-1,"text":"Y 29? por enviar el Burofax certificado... Hoy todo es un atraco a mano armada #CorreosLadrones","geoLocation":{"latitude":41.38163811,"longitude":2.18134751},"userLang":"es","userLocation":"Barcelona, Catalunya"},
{"id":453946515598639104,"userId":768373014,"createdAt":"09-abr-2014 19:24:17","inReplyToUserId":-1,"text":"Ahora Kumbababaselecta me recuerda a alejandro joer","geoLocation":{"latitude":41.5522473,"longitude":2.1135886},"userLang":"ca","userLocation":"Sabadell/ Mi mundo."},
{"id":453946522733133824,"userId":54388062,"createdAt":"09-abr-2014 19:24:19","inReplyToUserId":-1,"text":"Uyyy que intriga, que nos deparar? el programa de ma?ana ?? por lo visto va Raquel de experta #entretodostve","userLang":"es","userLocation":"Arucas"},
{"id":453946535886467072,"userId":552625828,"createdAt":"09-abr-2014 19:24:22","inReplyToUserId":-1,"text":"A?n est?s a tiempo de visitar \"Mam?, ?tengo dislexia?\" de Laia Tarruella. L-V 18-19 horas #arte? http://t.co/ieQnuLsmb1","geoLocation":{"latitude":41.40525947,"longitude":2.16486171},"userLang":"es","userLocation":"Grassot 97, Gracia, Barcelona"},
{"id":453946541536194560,"userId":860199336,"createdAt":"09-abr-2014 19:24:24","inReplyToUserId":1930528945,"text":"@berunnerfriend ?sa es la historia de todos mis fines de semana.","userLang":"ca","userLocation":"Catalunya"},
{"id":453946546997186560,"userId":437433929,"createdAt":"09-abr-2014 19:24:25","inReplyToUserId":-1,"text":"Just posted a photo @ Hotel Vincci Bit, Barcelona http://t.co/oEuEZCpest","geoLocation":{"latitude":41.41135738,"longitude":2.21198031},"userLang":"ru","userLocation":""},
{"id":453946578248957952,"userId":61289581,"createdAt":"09-abr-2014 19:24:32","inReplyToUserId":122104594,"text":"@PlayStationES @mart0s Quien pillara una PS4 ahora, joder...","userLang":"es","userLocation":"Gav?"},
{"id":453946580027314178,"userId":426017580,"createdAt":"09-abr-2014 19:24:33","inReplyToUserId":-1,"text":"Dentro de poco a hacer otra vez Paintball! Espero que esta vez no me revienten el tobillo de un bolazo... Duele bastante solo digo eso xD","geoLocation":{"latitude":41.65931816,"longitude":2.1728358},"userLang":"es","userLocation":"Barcelona"},
{"id":453946595479142400,"userId":188707100,"createdAt":"09-abr-2014 19:24:36","inReplyToUserId":-1,"text":"\"@EUtrafico: RT @sofiachend:  volvieron a trancar el #cigarral de bajada hacia la Trinidad, canal de subida en dos sentidos #9A 12:15\"","geoLocation":{"latitude":41.4885948,"longitude":2.0344},"userLang":"es","userLocation":"ESPA?A"},
{"id":453946612801617920,"userId":217511601,"createdAt":"09-abr-2014 19:24:41","inReplyToUserId":814425812,"text":"@mercebruguera @aniol92 @milpensaments @DeJaureguizar \nCom tenim l\u0027arbre ?\nHist?ric ja ?\nHahahaaa","geoLocation":{"latitude":41.6904309,"longitude":2.4579364},"userLang":"es","userLocation":"Sant Celoni #BaixMontseny"},
{"id":453946625036414976,"userId":768373014,"createdAt":"09-abr-2014 19:24:43","inReplyToUserId":-1,"text":"OHSI. #Notici?nCloverEnDel40al1 SOLDIERRRR","geoLocation":{"latitude":41.5522289,"longitude":2.1136109},"userLang":"ca","userLocation":"Sabadell/ Mi mundo."},
{"id":453946628542836736,"userId":195055091,"createdAt":"09-abr-2014 19:24:44","inReplyToUserId":-1,"text":"Puta, si, puta, me gusta y no puedo dec?rselo.","geoLocation":{"latitude":41.3871977,"longitude":2.1365245},"userLang":"es","userLocation":"Barcelona"},
{"id":453946634402279424,"userId":509340610,"createdAt":"09-abr-2014 19:24:46","inReplyToUserId":-1,"text":"Un poquito de Montjuic con mi pelirroja (: @ Mirador del Alcalde Montjuic http://t.co/vaGgCmGrMz","geoLocation":{"latitude":41.36804236,"longitude":2.16884677},"userLang":"es","userLocation":"Cordoba-Granada"},
{"id":453946640127492096,"userId":2154915802,"createdAt":"09-abr-2014 19:24:47","inReplyToUserId":301921037,"text":"@As_TomasRoncero no nos reimos del sufrimiento,nos reimos del equipucho del madrid,verguenza de juego!como pueden jugar en champions!!!tongo","geoLocation":{"latitude":41.73317884,"longitude":2.53935226},"userLang":"es","userLocation":""},
{"id":453946663196168193,"userId":416633580,"createdAt":"09-abr-2014 19:24:53","inReplyToUserId":2229221176,"text":"@freixecava qu? chispa hospeeeee!!!! @NeverLewinsky","geoLocation":{"latitude":41.3711058,"longitude":2.086911},"userLang":"es","userLocation":"Barcelona city."},
{"id":453946675888148480,"userId":484198613,"createdAt":"09-abr-2014 19:24:56","inReplyToUserId":-1,"text":"Va bar?a!!! Vaaaa!!!! #Esport3","geoLocation":{"latitude":41.4845564,"longitude":2.1366018},"userLang":"es","userLocation":"Cerdanyola del Vall?s"},
{"id":453946678291472384,"userId":768373014,"createdAt":"09-abr-2014 19:24:56","inReplyToUserId":-1,"text":"Toi llorando a mares.","geoLocation":{"latitude":41.5522671,"longitude":2.1135932},"userLang":"ca","userLocation":"Sabadell/ Mi mundo."},
{"id":453946685560197121,"userId":870518892,"createdAt":"09-abr-2014 19:24:58","inReplyToUserId":-1,"text":"Poco mas de 1 hora para el estreno de @MisionFlorimon","userLang":"es","userLocation":"Miss Alicante 1998"},
{"id":453946708326907905,"userId":241171326,"createdAt":"09-abr-2014 19:25:03","inReplyToUserId":163567765,"text":"@ManichSuperman Troll? xD seriously Crosoft ba3da \u003e_\u003c @A_bderrahmane","userLang":"fr","userLocation":"Algiers"},
{"id":453946709304168448,"userId":155542347,"createdAt":"09-abr-2014 19:25:04","inReplyToUserId":1235464484,"text":"@iiniallerhugs @Laura_GilV yo estoy igual todo el d?a pensando en ello.","geoLocation":{"latitude":41.37091477,"longitude":2.13990465},"userLang":"en","userLocation":""},
{"id":453946713204862976,"userId":813619992,"createdAt":"09-abr-2014 19:25:05","inReplyToUserId":-1,"text":"Ma?ana  van a pasar cosas importantes y uuna persona me necesita","userLang":"es","userLocation":""},
{"id":453946713456529408,"userId":171881265,"createdAt":"09-abr-2014 19:25:05","inReplyToUserId":197131772,"text":"@j_txp Estem en una segona transici? pol?tica, social, energ?tica, econ?mica i cal ser conscient.","geoLocation":{"latitude":41.3869,"longitude":2.18989},"userLang":"es","userLocation":"Sant Gregori, Girona"},
{"id":453946715343953920,"userId":593026941,"createdAt":"09-abr-2014 19:25:05","inReplyToUserId":68779204,"text":"@tan_hg @Gellert_G d?ganme pa que soy bueno cumplo uno y medio de los tres requisitos: feminista, queer heteroso ahogado n tiempos jejje","geoLocation":{"latitude":41.4028704,"longitude":2.17485895},"userLang":"en","userLocation":"MexicoCityBarcelonaParisEssex!"},
{"id":453946717025890305,"userId":1384110594,"createdAt":"09-abr-2014 19:25:05","inReplyToUserId":-1,"text":"Falten cinc minuts per a dos quarts de vuit del vespre","geoLocation":{"latitude":41.545639,"longitude":1.893817},"userLang":"ca","userLocation":"Olesa de Montserrat"},
{"id":453946719349526528,"userId":110264309,"createdAt":"09-abr-2014 19:25:06","inReplyToUserId":88638490,"text":"@adriagm @weareholon hola! A disposar!","geoLocation":{"latitude":41.38096884,"longitude":2.13779594},"userLang":"ca","userLocation":"Sants ? Barcelona ? Catalunya"},
{"id":453946727750709248,"userId":278965226,"createdAt":"09-abr-2014 19:25:08","inReplyToUserId":1411167853,"text":"@La_Retaguardia supongo que habran cubierto como merece esta entra?able y campechana recepcion en la @Casa_ReaI.","geoLocation":{"latitude":41.3780295,"longitude":1.9953153},"userLang":"ca","userLocation":"Sant Boi-Sant Vicen?-Torrelles"},
{"id":453946728144977921,"userId":416633580,"createdAt":"09-abr-2014 19:25:08","inReplyToUserId":1319194854,"text":"@Sometron @freixecava what the fuck?","geoLocation":{"latitude":41.3711058,"longitude":2.086911},"userLang":"es","userLocation":"Barcelona city."},
{"id":453946759208005632,"userId":137357450,"createdAt":"09-abr-2014 19:25:15","inReplyToUserId":123842239,"text":"@ivanvillanua @Yendy_Hernandez @Sorakku se sabe ya d?a ?? Si todo va bien ire desde Barcelona para verlo :D","geoLocation":{"latitude":41.38149191,"longitude":2.18116168},"userLang":"es","userLocation":"Barcelona, Catalunya"},
{"id":453946760235593728,"userId":301881585,"createdAt":"09-abr-2014 19:25:16","inReplyToUserId":-1,"text":"These hoes ain\u0027t loyal, These hoes ain\u0027t loyal.. #SpeakLess http://t.co/UjxrLdpctd","geoLocation":{"latitude":41.36776246,"longitude":2.1902129},"userLang":"fr","userLocation":"Barcelona, Spain."},
{"id":453946765033893888,"userId":385973619,"createdAt":"09-abr-2014 19:25:17","inReplyToUserId":632363606,"text":"@enima797 so cool","userLang":"fr","userLocation":"ALGERIA"},
{"id":453946791378313216,"userId":442611623,"createdAt":"09-abr-2014 19:25:23","inReplyToUserId":1411548174,"text":"@t3kum3iki @Khunnie0624 good cuz it\u0027s not worthy for someone who don\u0027t care even if we cry our heart out","userLang":"fr","userLocation":""},
{"id":453946793697763328,"userId":768373014,"createdAt":"09-abr-2014 19:25:24","inReplyToUserId":-1,"text":"ADIOOOOOOOOS ROXO MURIOOOOOOOO   \n#Notici?nCloverEnDel40al1","geoLocation":{"latitude":41.552273,"longitude":2.1136},"userLang":"ca","userLocation":"Sabadell/ Mi mundo."},
{"id":453946794079440896,"userId":347118089,"createdAt":"09-abr-2014 19:25:24","inReplyToUserId":-1,"text":"http://t.co/COJoJ49eRe","userLang":"es","userLocation":" Pine Avenue."},
{"id":453946799586545664,"userId":240093342,"createdAt":"09-abr-2014 19:25:25","inReplyToUserId":-1,"text":"Towson invades Barcelona ???? @ CDLC http://t.co/Tf5GXAj3tN","geoLocation":{"latitude":41.4004285,"longitude":2.156294},"userLang":"en","userLocation":""},
{"id":453946816695128064,"userId":1490536512,"createdAt":"09-abr-2014 19:25:29","inReplyToUserId":-1,"text":"El viernes tengo que hacer un trabajo y no he hecho una puta mierda, pues ma?ana tendre que hacerlo todo el dia :0","userLang":"es","userLocation":"Barcelona, Espanya."},
{"id":453946821065576448,"userId":710970006,"createdAt":"09-abr-2014 19:25:30","inReplyToUserId":-1,"text":"Que alguien me lo explique. http://t.co/R3BpUwfaLC","geoLocation":{"latitude":41.3998923,"longitude":2.176274},"userLang":"es","userLocation":"Moj?car (Almer?a)"},
{"id":453946832985784320,"userId":190199410,"createdAt":"09-abr-2014 19:25:33","inReplyToUserId":-1,"text":"Sou la coher?ncia, el pas del temps, la vida en un moment, sou l\u0027espurna desitjada ??","geoLocation":{"latitude":41.37780833,"longitude":2.17878245},"userLang":"es","userLocation":"Barcelona/Lal?n"},
{"id":453946837528231936,"userId":426017580,"createdAt":"09-abr-2014 19:25:34","inReplyToUserId":-1,"text":"Encima mi madre ahora quiere ir al Port Aventura... Jajajaj Yo quiero ir solo para subirme al Shambala kedhksdbkssbkssbsj *-*","geoLocation":{"latitude":41.6593148,"longitude":2.17283451},"userLang":"es","userLocation":"Barcelona"},
{"id":453946878158467072,"userId":578177200,"createdAt":"09-abr-2014 19:25:44","inReplyToUserId":-1,"text":"?Todo el mundo quiere estar entre mis amigos! Acabo de ganar un premio en #hotornotapp http://t.co/bzZMXSqmeJ http://t.co/DbYoaK0FoY","geoLocation":{"latitude":41.3887038,"longitude":2.1819696},"userLang":"es","userLocation":""},
{"id":453946896688893952,"userId":2474551,"createdAt":"09-abr-2014 19:25:48","inReplyToUserId":-1,"text":"I\u0027m at Wine Bar Casa Mariol (Barcelona, Catalunya) http://t.co/DCnem49Yun","geoLocation":{"latitude":41.40738356,"longitude":2.17581177},"userLang":"es","userLocation":"Barcelona, Catalunya"},
{"id":453946896382722048,"userId":289286519,"createdAt":"09-abr-2014 19:25:48","inReplyToUserId":-1,"text":"Aqu? seguimos todos en la agencia! Ay @maiderk que graciosa eres ;-) patomarrone pcondeb @ contrapunto http://t.co/49kCAgYCHs","geoLocation":{"latitude":41.396,"longitude":2.152},"userLang":"es","userLocation":"Barcelona"},
{"id":453946912228786177,"userId":16737032,"createdAt":"09-abr-2014 19:25:52","inReplyToUserId":-1,"text":"Tod@s mis english teachers critican que mi english es demasiado informal, pero he aprendido with Internet, so that\u0027s it, can\u0027t help it :(","userLang":"es","userLocation":"Barcelona"},
{"id":453946912677584897,"userId":118365080,"createdAt":"09-abr-2014 19:25:52","inReplyToUserId":-1,"text":"Uno de mis primos peque?os fangirleandome los dibujos que cuelgo en facebook por mensaje xD","userLang":"es","userLocation":"Martorelles, Barcelona."},
{"id":453946980088434688,"userId":2229221176,"createdAt":"09-abr-2014 19:26:08","inReplyToUserId":416633580,"text":"@ClaudiaG43 @Sometron owoo","geoLocation":{"latitude":41.3750783,"longitude":2.1209121},"userLang":"ca","userLocation":"En cualquier bosque, Celler"},
{"id":453947009775726592,"userId":454255061,"createdAt":"09-abr-2014 19:26:15","inReplyToUserId":-1,"text":"Lenta que llega a ser mi madre, oye.","geoLocation":{"latitude":41.6040993,"longitude":2.09142},"userLang":"ca","userLocation":"Castellar del Vall?s."},
{"id":453947033326718976,"userId":17214076,"createdAt":"09-abr-2014 19:26:21","inReplyToUserId":-1,"text":"http://t.co/Oh16GE2iQh","geoLocation":{"latitude":41.38569355,"longitude":2.17696063},"userLang":"ru","userLocation":"Saint-Petersburg"},
{"id":453947037953052672,"userId":195055091,"createdAt":"09-abr-2014 19:26:22","inReplyToUserId":-1,"text":"No tengo Dios ni patria ni religi?n, tengo una bolsa de hierba y una botella de ron.","geoLocation":{"latitude":41.3871977,"longitude":2.1365245},"userLang":"es","userLocation":"Barcelona"},
{"id":453947060082192384,"userId":1923113904,"createdAt":"09-abr-2014 19:26:27","inReplyToUserId":541138480,"text":"@suplycio73 A m? tambi?n me da igual: QUE PIERDA EL FARSA","userLang":"es","userLocation":""},
{"id":453947060916854784,"userId":83753635,"createdAt":"09-abr-2014 19:26:27","inReplyToUserId":-1,"text":"Date con mi #sofia #auntie mode on ! #barcelona #parkg?ell #gaud? #blessed #loved #happy @ Park G?ell? http://t.co/wROiAMEela","geoLocation":{"latitude":41.38474823,"longitude":2.17599666},"userLang":"en","userLocation":""},
{"id":453947087609405440,"userId":108430506,"createdAt":"09-abr-2014 19:26:34","inReplyToUserId":-1,"text":"#Barcelona #b20 (amarillo) circulaci?n en #Barcelona km10~6 dir. Norte #dgt #trafico http://t.co/7QTfymVF2N","geoLocation":{"latitude":41.419613,"longitude":2.139683},"userLang":"es","userLocation":"Espa?a"},
{"id":453947089534603265,"userId":188034572,"createdAt":"09-abr-2014 19:26:34","inReplyToUserId":704096060,"text":"@ivangas95 sisisisiisisisi ?","geoLocation":{"latitude":41.3848707,"longitude":2.1436726},"userLang":"es","userLocation":"Vinarosenca, living in bcn."},
{"id":453947094941069312,"userId":32909629,"createdAt":"09-abr-2014 19:26:36","inReplyToUserId":-1,"text":"El proper article que escriur? al @directe dedicat a... Tachan Tachan \"Rosa D?ez\" Perro piloto per a ella! @roseramills @tonialba @dnicatala","geoLocation":{"latitude":41.42292543,"longitude":2.18475979},"userLang":"ca","userLocation":"V ||*|| BCN - Catalunya"},
{"id":453947097038204928,"userId":171881265,"createdAt":"09-abr-2014 19:26:36","inReplyToUserId":489644061,"text":"@domenech60 He intentat interpretar a cada moment les prioritats del pa?s i gestionar les complexitats.","geoLocation":{"latitude":41.3869,"longitude":2.18989},"userLang":"es","userLocation":"Sant Gregori, Girona"},
{"id":453947118798262272,"userId":217511601,"createdAt":"09-abr-2014 19:26:41","inReplyToUserId":210887066,"text":"@aniol92 @mercebruguera @milpensaments \nVinga #porrafrac1\n1-3\n0-2 ( a la 1a part )\nQue et sembla @joancarlespc ?","geoLocation":{"latitude":41.6904309,"longitude":2.4579364},"userLang":"es","userLocation":"Sant Celoni #BaixMontseny"},
{"id":453947120765399040,"userId":779966870,"createdAt":"09-abr-2014 19:26:42","inReplyToUserId":-1,"text":"I\u0027m going through changes...","userLang":"es","userLocation":""},
{"id":453947123445555200,"userId":789669546,"createdAt":"09-abr-2014 19:26:42","inReplyToUserId":-1,"text":"https://t.co/KN2fNJqpzk \u003c333","userLang":"es","userLocation":"Repartiendo Amor Inecesario"},
{"id":453947122568937472,"userId":209477124,"createdAt":"09-abr-2014 19:26:42","inReplyToUserId":118763204,"text":"?@enbarcelonamag: Com estem d\u0027?nims?\n\nSom-hi, nooo?                FOR?A BAR?A!!! http://t.co/arFfXgDyZo? atl-1 fcb-1 penalts i pasem #Pinto","geoLocation":{"latitude":41.50338893,"longitude":2.19690062},"userLang":"en","userLocation":"Barcelona"},
{"id":453947130093506561,"userId":2249001318,"createdAt":"09-abr-2014 19:26:44","inReplyToUserId":2315972093,"text":"@asmaama38669769 ???? ??????","userLang":"en","userLocation":""},
{"id":453947133876797442,"userId":400709499,"createdAt":"09-abr-2014 19:26:45","inReplyToUserId":612437632,"text":"@luislario_ al fiiin se acabo justin bieber! Jajajajaj","geoLocation":{"latitude":41.38835097,"longitude":2.15150534},"userLang":"es","userLocation":"Barcelona"},
{"id":453947172296622080,"userId":12683712,"createdAt":"09-abr-2014 19:26:54","inReplyToUserId":989670037,"text":"@hoommerr73 y esa pulsera sub 45???","userLang":"ca","userLocation":"Badalona"},
{"id":453947178902622209,"userId":1300028780,"createdAt":"09-abr-2014 19:26:56","inReplyToUserId":-1,"text":"De tapitas por el barrio. (@ Amig? Cascarilles - @amigocascarille) http://t.co/GofefsptJT http://t.co/yJUUdFm9ji","geoLocation":{"latitude":41.37940498,"longitude":2.1621462},"userLang":"es","userLocation":"Madrid"},
{"id":453947189111578625,"userId":121071779,"createdAt":"09-abr-2014 19:26:58","inReplyToUserId":-1,"text":"Gli aeroporti nei momenti di calma possono essere posti molto rilassanti.","geoLocation":{"latitude":41.2917242,"longitude":2.0685549},"userLang":"en","userLocation":"Italy"},
{"id":453947190093025280,"userId":1926567312,"createdAt":"09-abr-2014 19:26:58","inReplyToUserId":1291865977,"text":"@RubioWesley97 ahi ahii estudiandoooo!! jajajajaja","userLang":"es","userLocation":"En un parque."},
{"id":453947198246756352,"userId":347887458,"createdAt":"09-abr-2014 19:27:00","inReplyToUserId":-1,"text":"El pasado oscuro de Borja bueno bueno.","userLang":"es","userLocation":"Canal Divinity"},
{"id":453947203250581504,"userId":1377151987,"createdAt":"09-abr-2014 19:27:01","inReplyToUserId":-1,"text":"You get what I need \u002788","userLang":"es","userLocation":"VEJER DE LA FRA "},
{"id":453947204903129089,"userId":53489036,"createdAt":"09-abr-2014 19:27:02","inReplyToUserId":-1,"text":"Planazo! Mireu l?Esports en Xarxa ara a les 19.30 i ja us poseu despr?s a les 8.45 amb el Bar?a, no? #planazo #anaconda","userLang":"ca","userLocation":"Barcelona"},
{"id":453947220648554496,"userId":768373014,"createdAt":"09-abr-2014 19:27:05","inReplyToUserId":-1,"text":"Temazo, porcierto. #Notici?nCloverEnDel40al1","geoLocation":{"latitude":41.5522744,"longitude":2.1136051},"userLang":"ca","userLocation":"Sabadell/ Mi mundo."},
{"id":453947265791819776,"userId":545810011,"createdAt":"09-abr-2014 19:27:16","inReplyToUserId":-1,"text":"TENGO LOKITA A LA DEL COMPRO ORO","geoLocation":{"latitude":41.38079747,"longitude":2.13248551},"userLang":"es","userLocation":""},
{"id":453947283026243584,"userId":562994211,"createdAt":"09-abr-2014 19:27:20","inReplyToUserId":-1,"text":"con lo cansadas que estamos y esta noche a estrenar tacones.. @PaolaRiesco ???","geoLocation":{"latitude":41.3835353,"longitude":2.0309249},"userLang":"es","userLocation":"santurtziiii   #LK16?"},
{"id":453947286130008064,"userId":26898731,"createdAt":"09-abr-2014 19:27:21","inReplyToUserId":-1,"text":"All the boys get the girls in the back #barcelona @ Platja de la Vil?la Olimpica http://t.co/Qity7BTuWl","geoLocation":{"latitude":41.38470912,"longitude":2.19793178},"userLang":"en","userLocation":"Barcelona, Spain"},
{"id":453947307692920832,"userId":416633580,"createdAt":"09-abr-2014 19:27:26","inReplyToUserId":1319194854,"text":"@Sometron @freixecava acabo de pillarlo. Perd?n por el retraso. Metaf?rico y literal.","geoLocation":{"latitude":41.3711058,"longitude":2.086911},"userLang":"es","userLocation":"Barcelona city."},
{"id":453947321408311296,"userId":1015496586,"createdAt":"09-abr-2014 19:27:30","inReplyToUserId":30504029,"text":"@ppppirri  Esto rojo que tengo aqui en la puntita de la polla es un chancron y NO ES TOCA","geoLocation":{"latitude":41.23682195,"longitude":1.82941306},"userLang":"es","userLocation":"Ese ? mi nombres"},
{"id":453947324273004544,"userId":2152557061,"createdAt":"09-abr-2014 19:27:30","inReplyToUserId":-1,"text":"Hora 19:27 on 09 abril 2014\nTemp. 21,4 C  \nPressi? 1019,8 hPa\nHumitat 58%\nVent 0 km/h\nDirecci? 360 graus ESE\nPluja 0,0 mm","geoLocation":{"latitude":41.69083333,"longitude":2.44305556},"userLang":"ca","userLocation":""},
{"id":453947342686023680,"userId":1926567312,"createdAt":"09-abr-2014 19:27:35","inReplyToUserId":-1,"text":"No busque mensaje en esa botella.","userLang":"es","userLocation":"En un parque."},
{"id":453947356996984832,"userId":32909629,"createdAt":"09-abr-2014 19:27:38","inReplyToUserId":143764294,"text":"@DolorsBoatella Millor ni ho preguntis... Pots veure la repetici? de les millors jugades de Rosa D?ez d\u0027ahir.","geoLocation":{"latitude":41.42294855,"longitude":2.18470641},"userLang":"ca","userLocation":"V ||*|| BCN - Catalunya"},
{"id":453947361195458561,"userId":974022020,"createdAt":"09-abr-2014 19:27:39","inReplyToUserId":-1,"text":"#RETENCI?N nivel AMARILLO en #B_20 (pk 10 al 6 norte) BARCELONA #DGTBarcelona #DGT http://t.co/uWuQhm6THm","geoLocation":{"latitude":41.41961288,"longitude":2.13968325},"userLang":"es","userLocation":""},
{"id":453947361195479041,"userId":849357139,"createdAt":"09-abr-2014 19:27:39","inReplyToUserId":-1,"text":"Me extra?arias si me voy.","geoLocation":{"latitude":41.43759619,"longitude":2.21711157},"userLang":"en","userLocation":"Spain"},
{"id":453947370167107586,"userId":1163258540,"createdAt":"09-abr-2014 19:27:41","inReplyToUserId":194492065,"text":"@natanjon80 de todo paso en la 1a parte,fallamos el penalty,fallo Pepe en el 1er gol y luego el desastre colectivo,luego mejor","geoLocation":{"latitude":41.545789,"longitude":2.4707669},"userLang":"es","userLocation":"barcelona"},
{"id":453947381483335680,"userId":110264309,"createdAt":"09-abr-2014 19:27:44","inReplyToUserId":220761835,"text":"@perearagay #porrapere 1-3","geoLocation":{"latitude":41.38022553,"longitude":2.13592229},"userLang":"ca","userLocation":"Sants ? Barcelona ? Catalunya"},
{"id":453947384616468480,"userId":454255061,"createdAt":"09-abr-2014 19:27:45","inReplyToUserId":-1,"text":"AAAAAGHH.","geoLocation":{"latitude":41.6040993,"longitude":2.09142},"userLang":"ca","userLocation":"Castellar del Vall?s."},
{"id":453947386298388480,"userId":952516940,"createdAt":"09-abr-2014 19:27:45","inReplyToUserId":-1,"text":"Sigo buscando una sonrisa de repente en un bar, una calada de algo que me pueda colocar... http://t.co/KxH9NsCZpZ","geoLocation":{"latitude":41.357283,"longitude":2.1010428},"userLang":"es","userLocation":"Barcelona"},
{"id":453947393814581248,"userId":2249001318,"createdAt":"09-abr-2014 19:27:47","inReplyToUserId":-1,"text":"byye guysss","userLang":"en","userLocation":""},
{"id":453947411992698880,"userId":416633580,"createdAt":"09-abr-2014 19:27:51","inReplyToUserId":1319194854,"text":"@Sometron @freixecava waticonteiaaaaaaaaaa","geoLocation":{"latitude":41.3711058,"longitude":2.086911},"userLang":"es","userLocation":"Barcelona city."},
{"id":453947419521466369,"userId":430008617,"createdAt":"09-abr-2014 19:27:53","inReplyToUserId":-1,"text":"El @XavierVallsSilv haura perdut la nit  a Madrid.... Se\u0027t veu com amb mal estar no? http://t.co/1WEQYRV5Kf","geoLocation":{"latitude":41.60909492,"longitude":2.03278325},"userLang":"ca","userLocation":""},
{"id":453947446184673280,"userId":84926253,"createdAt":"09-abr-2014 19:27:59","inReplyToUserId":67688606,"text":"No sabes que el HSBC est? casi en bancarrota?@tremendoviaje","userLang":"es","userLocation":"Euskadi-Indonesia-Catalunya "},
{"id":453947456985001984,"userId":759893276,"createdAt":"09-abr-2014 19:28:02","inReplyToUserId":-1,"text":"OP\nOP\nOP\nOP\nOP\nOPA\nOPA HOSTIL.","geoLocation":{"latitude":41.4065137,"longitude":2.2065575},"userLang":"es","userLocation":"Barcelona"},
{"id":453947472898170880,"userId":29488772,"createdAt":"09-abr-2014 19:28:06","inReplyToUserId":80373769,"text":"@SivaTheWanted I love your smile.","geoLocation":{"latitude":41.49582874,"longitude":2.18361815},"userLang":"es","userLocation":"Barcelona"},
{"id":453947485560778752,"userId":259348964,"createdAt":"09-abr-2014 19:28:09","inReplyToUserId":-1,"text":"#DePeque?o Las notas escolares de Rajoy. ?Lo ven capacitado para dirigirnos? http://t.co/YZCjGBIc0q","userLang":"es","userLocation":"Barcelona"},
{"id":453947512219787264,"userId":10839772,"createdAt":"09-abr-2014 19:28:15","inReplyToUserId":-1,"text":"... arriving... (@ Aeroport de Barcelona-El Prat (BCN) - @aenaaeropuertos w/ 36 others) http://t.co/cVcwAuYZVZ http://t.co/VVp9e2tssP","geoLocation":{"latitude":41.29612288,"longitude":2.07624435},"userLang":"en","userLocation":"Switzerland"},
{"id":453947531127717888,"userId":806968676,"createdAt":"09-abr-2014 19:28:20","inReplyToUserId":-1,"text":"Suecia: A prueba la jornada laboral de 6 horas http://t.co/szUHdKYTCC -QUE SUERTE TRABAJAR SEIS HORAS:))))","geoLocation":{"latitude":41.6117409,"longitude":2.2711882},"userLang":"es","userLocation":"CATALUNYA"},
{"id":453947543907753985,"userId":44361937,"createdAt":"09-abr-2014 19:28:23","inReplyToUserId":-1,"text":"I\u0027m at Konecta BTO (Barcelona, Catalunya) http://t.co/PzXegB1cbG","geoLocation":{"latitude":41.40099948,"longitude":2.19896346},"userLang":"es","userLocation":"L\u0027H - BCN - BDN"},
{"id":453947563096690688,"userId":870518892,"createdAt":"09-abr-2014 19:28:27","inReplyToUserId":870518892,"text":"@vanesa_romero #MeHagoUnaSelfie jejeje la selfie mas bonita es cualquiera en la q tu aparezcas","userLang":"es","userLocation":"Miss Alicante 1998"},
{"id":453947565659414528,"userId":309066725,"createdAt":"09-abr-2014 19:28:28","inReplyToUserId":487012392,"text":"@MarcosPayaM Felicidadeees :)","userLang":"es","userLocation":"lerelerelelerele"},
{"id":453947590217043968,"userId":806968676,"createdAt":"09-abr-2014 19:28:34","inReplyToUserId":-1,"text":"11 cosas que har?n que est?s en el promedio de la normalidad [EN] http://t.co/41C0yaRDe3","geoLocation":{"latitude":41.6117409,"longitude":2.2711881},"userLang":"es","userLocation":"CATALUNYA"},
{"id":453947608059641856,"userId":347887458,"createdAt":"09-abr-2014 19:28:38","inReplyToUserId":103010942,"text":"@rachelbamon Es que no. xD","userLang":"es","userLocation":"Canal Divinity"},
{"id":453947607816355840,"userId":99364926,"createdAt":"09-abr-2014 19:28:38","inReplyToUserId":-1,"text":"Ven a Pillarte Un Globo. A base de Vino tambi?n. Hoy prueba l#lapetiteagnes por 2?/copa:) @ METRIC, a? http://t.co/eXXfrKxhNd","geoLocation":{"latitude":41.3918071,"longitude":2.14152615},"userLang":"en","userLocation":"Catalunya"},
{"id":453947609833811968,"userId":193411502,"createdAt":"09-abr-2014 19:28:38","inReplyToUserId":-1,"text":"Una tarde divertida e inolvidable con el mejor cantante de la Ciudad Condal #ProdiG\nCon m?s flow!!!! http://t.co/4qbup7WyOh","geoLocation":{"latitude":41.47362685,"longitude":2.08740175},"userLang":"es","userLocation":"Barcelona"},
{"id":453947610450382848,"userId":217511601,"createdAt":"09-abr-2014 19:28:38","inReplyToUserId":2319186792,"text":"@joans110 @Fotlipou \nS?,  que corra el aire !!!\n:))","geoLocation":{"latitude":41.6904309,"longitude":2.4579364},"userLang":"es","userLocation":"Sant Celoni #BaixMontseny"},
{"id":453947635037392896,"userId":243259298,"createdAt":"09-abr-2014 19:28:44","inReplyToUserId":496106245,"text":"@eva_rodriguezna claro que me acuerdo !! y ya tenemos aqui el domingo de ramos mini?a, te quiero","userLang":"es","userLocation":"Sevillana"},
{"id":453947645024026624,"userId":359984480,"createdAt":"09-abr-2014 19:28:47","inReplyToUserId":220919365,"text":"@DavidAuryn  meeejorate\u003c3","userLang":"es","userLocation":""},
{"id":453947646571732993,"userId":2229221176,"createdAt":"09-abr-2014 19:28:47","inReplyToUserId":1319194854,"text":"@Sometron @ClaudiaG43 owoo","geoLocation":{"latitude":41.37232,"longitude":2.1089827},"userLang":"ca","userLocation":"En cualquier bosque, Celler"},
{"id":453947662019334144,"userId":29488772,"createdAt":"09-abr-2014 19:28:51","inReplyToUserId":220919365,"text":"@DavidAuryn Ahora todos vamos por ese camino, cuando nos confiamos del buen tiempo, hace malo...","geoLocation":{"latitude":41.49582218,"longitude":2.18359219},"userLang":"es","userLocation":"Barcelona"},
{"id":453947664871473152,"userId":752928986,"createdAt":"09-abr-2014 19:28:51","inReplyToUserId":-1,"text":"comment il est mort jon_ta_vie ?","userLang":"fr","userLocation":"farrah"},
{"id":453947676661653505,"userId":806968676,"createdAt":"09-abr-2014 19:28:54","inReplyToUserId":-1,"text":"Las redes P2P son legales en Espa?a: sentencia a favor de Pablo Soto http://t.co/rdMqJPQGUV","geoLocation":{"latitude":41.6117409,"longitude":2.2711881},"userLang":"es","userLocation":"CATALUNYA"},
{"id":453947678381322240,"userId":2229221176,"createdAt":"09-abr-2014 19:28:55","inReplyToUserId":-1,"text":"Owoo","geoLocation":{"latitude":41.37232,"longitude":2.1089827},"userLang":"ca","userLocation":"En cualquier bosque, Celler"},
{"id":453947687805931521,"userId":84926253,"createdAt":"09-abr-2014 19:28:57","inReplyToUserId":202729435,"text":"@VivirenMiami Palo seco? Que es eso, regal?z en rama?","userLang":"es","userLocation":"Euskadi-Indonesia-Catalunya "},
{"id":453947688892268544,"userId":211284631,"createdAt":"09-abr-2014 19:28:57","inReplyToUserId":-1,"text":"Burbujas!!!\n#freixenet #cava #catalunya #paseoxbarcelona #barnaphoto #bcninspira #fotodeldia #clikcat? http://t.co/qjO6zVLGzs","geoLocation":{"latitude":41.42476871,"longitude":1.78223446},"userLang":"es","userLocation":"Espa?a"},
{"id":453947696135831552,"userId":2404560064,"createdAt":"09-abr-2014 19:28:59","inReplyToUserId":379092156,"text":"@palacio05 #fuck","geoLocation":{"latitude":41.55156404,"longitude":2.28657581},"userLang":"ca","userLocation":"Vilanova del Vall?s"},
{"id":453947720269832194,"userId":166327238,"createdAt":"09-abr-2014 19:29:05","inReplyToUserId":-1,"text":"SANCIONS:  #2bg3 4 partits a Rober @RCDEspanyol , 3 a David Porras (t?c. @CD_Alcoyano, 2 a Rub?n Negredo @CF_Badalona #futbolcat","userLang":"es","userLocation":""},
{"id":453947744777154561,"userId":806968676,"createdAt":"09-abr-2014 19:29:10","inReplyToUserId":-1,"text":"Ana Torroja, condenada a un a?o y tres meses de c?rcel y al pago de 477.600 euros por fraude fiscal http://t.co/iYdVUfFECg","geoLocation":{"latitude":41.6117409,"longitude":2.2711881},"userLang":"es","userLocation":"CATALUNYA"},
{"id":453947744445825024,"userId":249327588,"createdAt":"09-abr-2014 19:29:10","inReplyToUserId":-1,"text":"Nefasto final de HIMYM","geoLocation":{"latitude":41.4853072,"longitude":2.0416688},"userLang":"es","userLocation":""},
{"id":453947758651904000,"userId":2350281440,"createdAt":"09-abr-2014 19:29:14","inReplyToUserId":-1,"text":"Much?simas gracias por todo de verdad @CloverOficial no puedo dejar de llorar #Notici?nCloverEnDel40Al1 os merec?is estoy y m?s ?","geoLocation":{"latitude":41.4763911,"longitude":2.2819053},"userLang":"es","userLocation":"Montgat Nord"},
{"id":453947760111525888,"userId":1367501953,"createdAt":"09-abr-2014 19:29:14","inReplyToUserId":257917063,"text":"@MariaCasasc d\u0027acord","geoLocation":{"latitude":41.3853751,"longitude":2.126018},"userLang":"en","userLocation":"Barcelona"},
{"id":453947775303290880,"userId":359984480,"createdAt":"09-abr-2014 19:29:18","inReplyToUserId":223832541,"text":"@AurynOficial  Para cuando el tercer disco? #ganitas","userLang":"es","userLocation":""},
{"id":453947775315886080,"userId":2229221176,"createdAt":"09-abr-2014 19:29:18","inReplyToUserId":416633580,"text":"@ClaudiaG43 @Sometron no te perdono retrasada","geoLocation":{"latitude":41.37232,"longitude":2.1089827},"userLang":"ca","userLocation":"En cualquier bosque, Celler"},
{"id":453947781368258560,"userId":1868602543,"createdAt":"09-abr-2014 19:29:19","inReplyToUserId":1400464436,"text":"@bada_joan perdona. Ho tindr? en compte. Per? ?s el ke passa quant penges una cosa bona. Es diu morir d\u0027?xit. Abra?ada","geoLocation":{"latitude":41.3750156,"longitude":2.1596647},"userLang":"ca","userLocation":""},
{"id":453947814415187968,"userId":234303725,"createdAt":"09-abr-2014 19:29:27","inReplyToUserId":-1,"text":"Barbara Palvin it\u0027s perfect?","geoLocation":{"latitude":41.3731002,"longitude":2.107542},"userLang":"en","userLocation":""},
{"id":453947819683246080,"userId":354525314,"createdAt":"09-abr-2014 19:29:28","inReplyToUserId":-1,"text":"???? ????? ? ?????????? ?????? ???? ??? #?????? ??????? ??? ?? ???? ???? ??? ?????? ???? ?????? ?? ????? http://t.co/AevdTlkN4y","geoLocation":{"latitude":41.38525734,"longitude":2.15534501},"userLang":"en","userLocation":"AlAin"},
{"id":453947857901715456,"userId":2229221176,"createdAt":"09-abr-2014 19:29:37","inReplyToUserId":1319194854,"text":"@Sometron @ClaudiaG43 si tio tkm","geoLocation":{"latitude":41.3691948,"longitude":2.0966109},"userLang":"ca","userLocation":"En cualquier bosque, Celler"},
{"id":453947867007557632,"userId":83753635,"createdAt":"09-abr-2014 19:29:40","inReplyToUserId":-1,"text":"Y para finalizar una m?gica jornada !!! BESITO Pa\u0027 el Lagarto ! #gaud? #parkg?ell #barcelona #blessed? http://t.co/bP67ud9x9E","geoLocation":{"latitude":41.38465854,"longitude":2.15403858},"userLang":"en","userLocation":""},
{"id":453947871851999233,"userId":416633580,"createdAt":"09-abr-2014 19:29:41","inReplyToUserId":1319194854,"text":"@Sometron @freixecava m?s bien se?orrrrrrrita ?","geoLocation":{"latitude":41.3711058,"longitude":2.086911},"userLang":"es","userLocation":"Barcelona city."},
{"id":453947904861167616,"userId":145096498,"createdAt":"09-abr-2014 19:29:49","inReplyToUserId":-1,"text":"BCN .:. (@ Gran Hotel Princesa Sof?a) http://t.co/q9UTjaH9iB http://t.co/6VZLoFnY6L","geoLocation":{"latitude":41.38646378,"longitude":2.12300544},"userLang":"es","userLocation":"Live.Love.Laugh "},
{"id":453947910443765760,"userId":2425284872,"createdAt":"09-abr-2014 19:29:50","inReplyToUserId":-1,"text":"No one wants to fight for my pee D:","userLang":"es","userLocation":"Pigfarts"},
{"id":453947929498488832,"userId":347887458,"createdAt":"09-abr-2014 19:29:54","inReplyToUserId":-1,"text":"Las fotos que pongo aqu? son en las que salgo bien en directo soy peor, creo.","userLang":"es","userLocation":"Canal Divinity"},
{"id":453947968975302659,"userId":1460468562,"createdAt":"09-abr-2014 19:30:04","inReplyToUserId":-1,"text":"El temps a #Montbau\nTemp: 17,8?C (15,1?C-20,9?C); T.ap: 17,8?C; Humitat: 60%; Pressio: 1020,0hpa; Pluja 0,0mm\nhttp://t.co/2Hi7WCN8Bu","geoLocation":{"latitude":41.43,"longitude":2.14277778},"userLang":"ca","userLocation":"Barcelona"},
{"id":453947973400293376,"userId":54388062,"createdAt":"09-abr-2014 19:30:05","inReplyToUserId":-1,"text":"Muchas felicidades !!! @SFernandez_tve","userLang":"es","userLocation":"Arucas"},
{"id":453947975837163520,"userId":1384110594,"createdAt":"09-abr-2014 19:30:06","inReplyToUserId":-1,"text":"S?n dos quarts de vuit del vespre","geoLocation":{"latitude":41.545639,"longitude":1.893817},"userLang":"ca","userLocation":"Olesa de Montserrat"},
{"id":453947976118173696,"userId":584661634,"createdAt":"09-abr-2014 19:30:06","inReplyToUserId":-1,"text":"ding ding!!!!!!!","geoLocation":{"latitude":41.545639,"longitude":1.893817},"userLang":"ca","userLocation":"Olesa de Montserrat"},
{"id":453947994942226432,"userId":541418980,"createdAt":"09-abr-2014 19:30:10","inReplyToUserId":-1,"text":"Muy fan de @lapelopony https://t.co/acCTRQ3KTV","geoLocation":{"latitude":41.474961,"longitude":2.080306},"userLang":"es","userLocation":"Barcelona"},
{"id":453948003532165120,"userId":17214076,"createdAt":"09-abr-2014 19:30:12","inReplyToUserId":-1,"text":"http://t.co/xfsnLgLREU","geoLocation":{"latitude":41.38880089,"longitude":2.17396092},"userLang":"ru","userLocation":"Saint-Petersburg"},
{"id":453948023081820160,"userId":2367389661,"createdAt":"09-abr-2014 19:30:17","inReplyToUserId":280104242,"text":"?@AlizeeDelbr: Amai barcelona is toch iets fantastisch ze #megabon ???","geoLocation":{"latitude":41.38436046,"longitude":2.18456956},"userLang":"en","userLocation":"|Antwerp|"},
{"id":453948034347712515,"userId":806968676,"createdAt":"09-abr-2014 19:30:19","inReplyToUserId":-1,"text":"Pintando un mural sin saber dibujar http://t.co/6lXQhdmfY2","geoLocation":{"latitude":41.6117409,"longitude":2.2711883},"userLang":"es","userLocation":"CATALUNYA"},
{"id":453948037191454720,"userId":2229221176,"createdAt":"09-abr-2014 19:30:20","inReplyToUserId":416633580,"text":"@ClaudiaG43 @Sometron ya no se en cual d las 2 convers estoy xD","geoLocation":{"latitude":41.3691948,"longitude":2.0966109},"userLang":"ca","userLocation":"En cualquier bosque, Celler"},
{"id":453948044133027840,"userId":91791727,"createdAt":"09-abr-2014 19:30:22","inReplyToUserId":-1,"text":"Primer helado del a?o ??? @albertmiravent #l?a #plazaespa?a http://t.co/AbKrgfVBo2","geoLocation":{"latitude":41.42026749,"longitude":2.17989412},"userLang":"es","userLocation":"Tarragona, Els Pallaresos"},
{"id":453948060620820480,"userId":329691786,"createdAt":"09-abr-2014 19:30:26","inReplyToUserId":-1,"text":"0-5 i marca Pinto. #porraBar?a","geoLocation":{"latitude":41.39469137,"longitude":2.17785518},"userLang":"ca","userLocation":""},
{"id":453948074109710336,"userId":806968676,"createdAt":"09-abr-2014 19:30:29","inReplyToUserId":-1,"text":"C?mo M?laga ha convertido un mont?n de bloques de hormig?n en uno de los inventos del a?o http://t.co/xDHvGMSX7B","geoLocation":{"latitude":41.6117409,"longitude":2.2711883},"userLang":"es","userLocation":"CATALUNYA"},
{"id":453948105772523520,"userId":248270988,"createdAt":"09-abr-2014 19:30:37","inReplyToUserId":-1,"text":"\"@IlusionOpticaEs: Haz click en la foto http://t.co/76lgl2XEav\"","geoLocation":{"latitude":41.3911464,"longitude":2.1841047},"userLang":"es","userLocation":"Barcelona (Spain)"},
{"id":453948122226753536,"userId":217511601,"createdAt":"09-abr-2014 19:30:40","inReplyToUserId":814425812,"text":"@mercebruguera @aniol92 @milpensaments @DeJaureguizar \nT\u0027ha dit \n23 de Maig presentaci? del llibre a #SantCeloni ?\n:)))\nApunta\u0027t-ho !!!","geoLocation":{"latitude":41.6904309,"longitude":2.4579364},"userLang":"es","userLocation":"Sant Celoni #BaixMontseny"},
{"id":453948150450245632,"userId":752928986,"createdAt":"09-abr-2014 19:30:47","inReplyToUserId":-1,"text":"pls dite moi si mon header va avec ma pp ???????????","userLang":"fr","userLocation":"farrah"},
{"id":453948190736547840,"userId":2182149579,"createdAt":"09-abr-2014 19:30:57","inReplyToUserId":1705708890,"text":"@CarcedoRo @ConfiBuho hasta que caduque?  Ayss no!!! Que lo nuestro (lo p?blico) ya ha caducado para esta gentuza","geoLocation":{"latitude":41.3047055,"longitude":2.0008899},"userLang":"es","userLocation":"Gav?"},
{"id":453948193441853440,"userId":347887458,"createdAt":"09-abr-2014 19:30:57","inReplyToUserId":103010942,"text":"@rachelbamon Primero que el significado no tiene nada que ver uno con el otro y segundo que uno era para hacerse el guay y slay es algo +","userLang":"es","userLocation":"Canal Divinity"},
{"id":453948192590413824,"userId":806968676,"createdAt":"09-abr-2014 19:30:57","inReplyToUserId":-1,"text":"Un estudio elimina todas las dudas sobre el cruce entre neandertales y humanos http://t.co/zPrdjnw1AB","geoLocation":{"latitude":41.6117409,"longitude":2.2711883},"userLang":"es","userLocation":"CATALUNYA"},
{"id":453948209145339904,"userId":124332674,"createdAt":"09-abr-2014 19:31:01","inReplyToUserId":-1,"text":"Cortes y ara?azos","geoLocation":{"latitude":41.3760055,"longitude":2.0695032},"userLang":"es","userLocation":"BROKEN SOULS STUDIOS"},
{"id":453948226606211074,"userId":387914086,"createdAt":"09-abr-2014 19:31:05","inReplyToUserId":91791727,"text":"@estelatkd lastima que ya estaba finni! Jajajja","geoLocation":{"latitude":41.42034353,"longitude":2.17983229},"userLang":"es","userLocation":""},
{"id":453948249796534272,"userId":806968676,"createdAt":"09-abr-2014 19:31:11","inReplyToUserId":-1,"text":"Analiza tus h?bitos de navegaci?n por Internet con Surfkollen http://t.co/jmu0eCki65","geoLocation":{"latitude":41.6117406,"longitude":2.2711881},"userLang":"es","userLocation":"CATALUNYA"},
{"id":453948262551416832,"userId":1867190389,"createdAt":"09-abr-2014 19:31:14","inReplyToUserId":-1,"text":"Se?ores har?n tongazo aqu? tb?? http://t.co/NWlSqFkzCr va ganando Dulce Nombre de M?laga y la Paloma va cuarta !","userLang":"es","userLocation":"Barcelona"},
{"id":453948269841096704,"userId":55010639,"createdAt":"09-abr-2014 19:31:16","inReplyToUserId":276632609,"text":"@SigfridSoria t? s? q eres escoria","geoLocation":{"latitude":41.37019806,"longitude":2.0876576},"userLang":"es","userLocation":"BCN/CATALUNYA"},
{"id":453948292494528512,"userId":593026941,"createdAt":"09-abr-2014 19:31:21","inReplyToUserId":1272821048,"text":"@indiobarcelona @tan_hg @amaurs as? \"solucionan\" cu?ndo veremos un arresto por la corrupci?n n compras/planeaci?n de metro? #posmesalto","geoLocation":{"latitude":41.40286887,"longitude":2.17477566},"userLang":"en","userLocation":"MexicoCityBarcelonaParisEssex!"},
{"id":453948301885599744,"userId":217511601,"createdAt":"09-abr-2014 19:31:23","inReplyToUserId":312590328,"text":"@joancarlespc @aniol92 @mercebruguera @milpensaments \nHahahaaa\nQuin ull cl?nic !!!!","geoLocation":{"latitude":41.6879897,"longitude":2.4831417},"userLang":"es","userLocation":"Sant Celoni #BaixMontseny"},
{"id":453948313130520576,"userId":416633580,"createdAt":"09-abr-2014 19:31:26","inReplyToUserId":1319194854,"text":"@Sometron @freixecava o grasias","geoLocation":{"latitude":41.3711058,"longitude":2.086911},"userLang":"es","userLocation":"Barcelona city."},
{"id":453948316955721729,"userId":474723430,"createdAt":"09-abr-2014 19:31:27","inReplyToUserId":-1,"text":"Qui?n dijo que correr es de cobardes?? Vamosss!! ??? http://t.co/kvNVG5FU76","geoLocation":{"latitude":41.41151255,"longitude":2.21193146},"userLang":"es","userLocation":"Las Palmas de Gran Canaria"},
{"id":453948320080486400,"userId":426017580,"createdAt":"09-abr-2014 19:31:28","inReplyToUserId":-1,"text":"Jodr... Ahora veo m?s la tele que antes O.o","geoLocation":{"latitude":41.6593181,"longitude":2.17283546},"userLang":"es","userLocation":"Barcelona"},
{"id":453948324564197377,"userId":295694501,"createdAt":"09-abr-2014 19:31:29","inReplyToUserId":-1,"text":".@xavigomezr @ernesturtasun a Martorell amb prioritats @icveuia parlament europeu: economia verda per a sortir crisi http://t.co/waFwn5qAkD","geoLocation":{"latitude":41.47360402,"longitude":1.91529198},"userLang":"es","userLocation":""},
{"id":453948344810082304,"userId":1926567312,"createdAt":"09-abr-2014 19:31:34","inReplyToUserId":-1,"text":"Las indirectas se te dan bien.","userLang":"es","userLocation":"En un parque."},
{"id":453948346429091840,"userId":13308972,"createdAt":"09-abr-2014 19:31:34","inReplyToUserId":-1,"text":"I\u0027m at Hotel Jazz (Barcelona) http://t.co/QPhUVJMrAN","geoLocation":{"latitude":41.38614623,"longitude":2.16571094},"userLang":"en","userLocation":"Munich"},
{"id":453948361478254592,"userId":727326024,"createdAt":"09-abr-2014 19:31:37","inReplyToUserId":-1,"text":"Thought this was cool \u003c3 #barcelona #firsttimer http://t.co/GvN9nwBuOu","geoLocation":{"latitude":41.38730159,"longitude":2.1824576},"userLang":"en","userLocation":"London // Los Angeles"},
{"id":453948368889597952,"userId":870518892,"createdAt":"09-abr-2014 19:31:39","inReplyToUserId":132130219,"text":"@Pivotalba @VanesaRomero_F pues que yo sepa no hay nada organizado... pero si surge jajjaja","userLang":"es","userLocation":"Miss Alicante 1998"},
{"id":453948369820721152,"userId":250233481,"createdAt":"09-abr-2014 19:31:39","inReplyToUserId":-1,"text":"I\u0027m completely in love with my city #Barcelona #view #gorgeous #landscape @ Museu Nacional d\u0027Art de? http://t.co/fWSmUSmmon","geoLocation":{"latitude":41.368532,"longitude":2.153567},"userLang":"es","userLocation":""},
{"id":453948383116689408,"userId":806968676,"createdAt":"09-abr-2014 19:31:43","inReplyToUserId":-1,"text":"Marcas famosas en chino: Su significado y la importancia de una buena traducci?n http://t.co/nP7N7ylRtt","geoLocation":{"latitude":41.6117497,"longitude":2.271197},"userLang":"es","userLocation":"CATALUNYA"},
{"id":453948383779368960,"userId":311692283,"createdAt":"09-abr-2014 19:31:43","inReplyToUserId":234567057,"text":"@Fotlipou #frac1 Ni anaconda ni ?sties, jo estic moooolt tranquil, i guanyar? el Bar?a fent un bon partit!","geoLocation":{"latitude":41.48816184,"longitude":2.35291043},"userLang":"es","userLocation":"BCN, Cat, Espanya, Europa..."},
{"id":453948388053360641,"userId":2231584392,"createdAt":"09-abr-2014 19:31:44","inReplyToUserId":2383746126,"text":"@UpdatesVioletta C\u0027est une capture d\u0027une vid?o ?","userLang":"fr","userLocation":"France"},
{"id":453948404318875648,"userId":91791727,"createdAt":"09-abr-2014 19:31:48","inReplyToUserId":387914086,"text":"@albertmiravent tu q navas amb l\u0027ansia ?","geoLocation":{"latitude":41.42027699,"longitude":2.17983967},"userLang":"es","userLocation":"Tarragona, Els Pallaresos"},
{"id":453948405380042752,"userId":217511601,"createdAt":"09-abr-2014 19:31:48","inReplyToUserId":210887066,"text":"@aniol92 @mercebruguera @milpensaments @joancarlespc \nTuiterTelepat?a !!!","geoLocation":{"latitude":41.6879897,"longitude":2.4831417},"userLang":"es","userLocation":"Sant Celoni #BaixMontseny"},
{"id":453948421154807808,"userId":205462834,"createdAt":"09-abr-2014 19:31:52","inReplyToUserId":-1,"text":"buscant...em vaig perdre fins que em vaig trobar a mi mateix.","geoLocation":{"latitude":41.54660097,"longitude":2.02513315},"userLang":"ca","userLocation":"Sant Cugat del Vall?s"},
{"id":453948424661266432,"userId":2416281173,"createdAt":"09-abr-2014 19:31:53","inReplyToUserId":-1,"text":"Passant l\u0027estona amb la Marina #TousActiu http://t.co/TuHN9OQ6cP","geoLocation":{"latitude":41.380288,"longitude":2.1286269},"userLang":"es","userLocation":""},
{"id":453948432131317761,"userId":2229221176,"createdAt":"09-abr-2014 19:31:54","inReplyToUserId":416633580,"text":"@ClaudiaG43 @Sometron d na","geoLocation":{"latitude":41.3691948,"longitude":2.0966109},"userLang":"ca","userLocation":"En cualquier bosque, Celler"},
{"id":453948460795191296,"userId":2350281440,"createdAt":"09-abr-2014 19:32:01","inReplyToUserId":-1,"text":"Estar mi madre y yo cantando y bailando #Soldier y que entre mi padre y se quede flipando #Notici?nCloverEnDel40Al1","geoLocation":{"latitude":41.4763428,"longitude":2.2818845},"userLang":"es","userLocation":"Montgat Nord"},
{"id":453948475571716096,"userId":469672013,"createdAt":"09-abr-2014 19:32:05","inReplyToUserId":-1,"text":"Cuenta atras para que empiece nuestra #MusicNight en @BBarBarcelona con La F?e D?chir?e! #IloveBmusicnights!! :) http://t.co/bcdPr7LxO8","geoLocation":{"latitude":41.37627295,"longitude":2.15077999},"userLang":"en","userLocation":"Barcelona"},
{"id":453948494018256897,"userId":124332674,"createdAt":"09-abr-2014 19:32:09","inReplyToUserId":-1,"text":"REINAAAA!!!!!! http://t.co/wUpzV3vEt1","geoLocation":{"latitude":41.3760055,"longitude":2.0695032},"userLang":"es","userLocation":"BROKEN SOULS STUDIOS"},
{"id":453948516923346944,"userId":545953004,"createdAt":"09-abr-2014 19:32:15","inReplyToUserId":-1,"text":"????? ????? ???? ??? ????? ??? ???????? ??????? ?? ??? ????? ???? ???? ???? ???????","userLang":"fr","userLocation":"Algeria"},
{"id":453948526322786304,"userId":804417044,"createdAt":"09-abr-2014 19:32:17","inReplyToUserId":112764971,"text":"@FCBarcelona_es Atenci?n, hoy puede ser una gran noche! (Eso espero)","geoLocation":{"latitude":41.37569245,"longitude":2.12499291},"userLang":"es","userLocation":"Barcelona (Espa?a)"},
{"id":453948527526572033,"userId":593026941,"createdAt":"09-abr-2014 19:32:17","inReplyToUserId":68779204,"text":"@tan_hg @Gellert_G Ok que me digan chido al email abrazos","geoLocation":{"latitude":41.40290714,"longitude":2.1746447},"userLang":"en","userLocation":"MexicoCityBarcelonaParisEssex!"},
{"id":453948530021765120,"userId":253349845,"createdAt":"09-abr-2014 19:32:18","inReplyToUserId":-1,"text":"temperature down 18?C -\u003e 16?C\nhumidity up 68% -\u003e 82%\nwind 35km/h -\u003e 29km/h","geoLocation":{"latitude":41.39917,"longitude":2.15397},"userLang":"en","userLocation":"Barcelona, Venezuela"},
{"id":453948561630457856,"userId":806968676,"createdAt":"09-abr-2014 19:32:25","inReplyToUserId":-1,"text":"C?mo influye el precio de la gasolina en la forma de un pa?s http://t.co/gkQKZGfKzr \"YA VES\"","geoLocation":{"latitude":41.6117414,"longitude":2.27119},"userLang":"es","userLocation":"CATALUNYA"},
{"id":453948576511840256,"userId":347887458,"createdAt":"09-abr-2014 19:32:29","inReplyToUserId":2467999919,"text":"@rbbers ALBERIO","userLang":"es","userLocation":"Canal Divinity"},
{"id":453948616701652993,"userId":313931098,"createdAt":"09-abr-2014 19:32:38","inReplyToUserId":1472457559,"text":"@saidicelia1996 mdr welah il a raison","userLang":"fr","userLocation":"? ? ? ? ?algeria ? ? ? ? "},
{"id":453948619813842944,"userId":974022020,"createdAt":"09-abr-2014 19:32:39","inReplyToUserId":-1,"text":"#RETENCI?N nivel AMARILLO en #B_23 (pk 0 al 3 norte) BARCELONA #DGTBarcelona #DGT http://t.co/RBZCG0Op4X","geoLocation":{"latitude":41.38332748,"longitude":2.10769606},"userLang":"es","userLocation":""},
{"id":453948620661084160,"userId":974022020,"createdAt":"09-abr-2014 19:32:39","inReplyToUserId":-1,"text":"#RETENCI?N nivel AMARILLO en #B_10 (pk 10 al 17 norte) BARCELONA #DGTBarcelona #DGT http://t.co/TAqLCqRXuB","geoLocation":{"latitude":41.38184738,"longitude":2.18546128},"userLang":"es","userLocation":""},
{"id":453948621143429120,"userId":136322238,"createdAt":"09-abr-2014 19:32:39","inReplyToUserId":-1,"text":"?Es s?lida la recuperaci?n? @AntArgandona y Jordi Gual en la PADE-PDG Alumni Reunion #IESELive http://t.co/j718yeEP26","geoLocation":{"latitude":41.39364236,"longitude":2.10551786},"userLang":"es","userLocation":"Barcelona"},
{"id":453948645814304769,"userId":213334323,"createdAt":"09-abr-2014 19:32:45","inReplyToUserId":-1,"text":"no se si s\u0027ha dit encara,pero ens cal marcar un gol #frac1 , per si no ho habieu recalcat prou encara ;)","userLang":"es","userLocation":"sant joan de vilatorrada"},
{"id":453948663581380608,"userId":250137683,"createdAt":"09-abr-2014 19:32:50","inReplyToUserId":-1,"text":"I\u0027m at Xocolate\u0027s (Barcelona, Catalunya) http://t.co/otRSzq7mR8","geoLocation":{"latitude":41.400168,"longitude":2.151099},"userLang":"es","userLocation":""},
{"id":453948675593867265,"userId":270304832,"createdAt":"09-abr-2014 19:32:52","inReplyToUserId":-1,"text":"Informame de #Notici?nCloverEnDel40al1 @ShayPicapiedra que te voy de reportera ?eh?","userLang":"es","userLocation":"\u0027Muy MUY CAPACITADOS.\u0027 db?"},
{"id":453948685303676928,"userId":317394083,"createdAt":"09-abr-2014 19:32:55","inReplyToUserId":-1,"text":"Swimm! ??? (@ Complex Esportiu Alella) http://t.co/roaF80npe4","geoLocation":{"latitude":41.48939066,"longitude":2.29562003},"userLang":"es","userLocation":"Barcelona"},
{"id":453948687883177984,"userId":806968676,"createdAt":"09-abr-2014 19:32:55","inReplyToUserId":-1,"text":"La actriz de Bernarda Alba clama justicia a 48 horas d entrar en la c?rcel por un robo de chatarra de hace cinco a?os http://t.co/DxwLs9JPU0","geoLocation":{"latitude":41.6117411,"longitude":2.2711904},"userLang":"es","userLocation":"CATALUNYA"},
{"id":453948714772856832,"userId":437433929,"createdAt":"09-abr-2014 19:33:02","inReplyToUserId":-1,"text":"? ??? ???????? ????????? ? ?????? @ Barcelona, Spain http://t.co/380cNWuaYP","geoLocation":{"latitude":41.3833,"longitude":2.18333},"userLang":"ru","userLocation":""},
{"id":453948722360369152,"userId":82188722,"createdAt":"09-abr-2014 19:33:04","inReplyToUserId":-1,"text":"Este pa?s va mal porque la gente queda en la cafeter?a para chismorrear sobre la vida de sus vecinos.","userLang":"es","userLocation":"Internet"},
{"id":453948727301267457,"userId":2229221176,"createdAt":"09-abr-2014 19:33:05","inReplyToUserId":-1,"text":"Te aburres? No sabes que hacerlo? Yo te traigo la soluci?n!\nMolesta a @ClaudiaG43 y a @Sometron por Twitter. Veras como te diviertes","geoLocation":{"latitude":41.3691948,"longitude":2.0966109},"userLang":"ca","userLocation":"En cualquier bosque, Celler"},
{"id":453948735643729920,"userId":1586532535,"createdAt":"09-abr-2014 19:33:07","inReplyToUserId":-1,"text":"my only hero :) he is king ,king of the arabic music @omarsadi1980","userLang":"tr","userLocation":"TURKEY "},
{"id":453948746146275328,"userId":1242251928,"createdAt":"09-abr-2014 19:33:09","inReplyToUserId":-1,"text":"Vale chicos, 5 minutos y nuevo v?deo!","userLang":"es","userLocation":"Granollers, Catalunya, Espa?a"},
{"id":453948751233966080,"userId":424277861,"createdAt":"09-abr-2014 19:33:10","inReplyToUserId":-1,"text":"Il fait chaud Oo","userLang":"fr","userLocation":"Alg?rie"},
{"id":453948754270617600,"userId":442611623,"createdAt":"09-abr-2014 19:33:11","inReplyToUserId":1411548174,"text":"@t3kum3iki @Khunnie0624 hahaha strong people are like that lol","userLang":"fr","userLocation":""},
{"id":453948774470389760,"userId":2352121484,"createdAt":"09-abr-2014 19:33:16","inReplyToUserId":6015212,"text":"@ElUniversal Gallinas... nos bastamos nosotros solos","userLang":"es","userLocation":""},
{"id":453948798541524992,"userId":942577543,"createdAt":"09-abr-2014 19:33:22","inReplyToUserId":-1,"text":"Todo se convierte en algo cuando se cobra por las miserias de una vida asqueada http://t.co/v2COU4eeFZ","geoLocation":{"latitude":41.622269,"longitude":2.2756021},"userLang":"es","userLocation":"canovellas     Barcelona"},
{"id":453948799703330816,"userId":56575393,"createdAt":"09-abr-2014 19:33:22","inReplyToUserId":-1,"text":"Tot el poder per als soviets  :) #uab #bellaterra #cerdanyola #vallesoccidental @ Facultat de CCPP i? http://t.co/85RrFa7I9k","geoLocation":{"latitude":41.50230084,"longitude":2.10557046},"userLang":"ca","userLocation":"CAT"},
{"id":453948804811993089,"userId":1222733556,"createdAt":"09-abr-2014 19:33:23","inReplyToUserId":-1,"text":"https://t.co/IjWcbxWKv1 everyone listen to this amazing demo by my friend @katejob :) x","userLang":"en","userLocation":"Barcelona"},
{"id":453948805235609600,"userId":234303725,"createdAt":"09-abr-2014 19:33:23","inReplyToUserId":-1,"text":"Smile today, cry tomorrow. *read this everyday*","geoLocation":{"latitude":41.3731274,"longitude":2.1075331},"userLang":"en","userLocation":""},
{"id":453948811761946624,"userId":789669546,"createdAt":"09-abr-2014 19:33:25","inReplyToUserId":-1,"text":"10K TWEETS BIEN \\o/","userLang":"es","userLocation":"Repartiendo Amor Inecesario"},
{"id":453948815528452096,"userId":1575964099,"createdAt":"09-abr-2014 19:33:26","inReplyToUserId":-1,"text":"La justicia en EEUU, por dios que ni seas negro.\nhttp://t.co/vL9SWKz90N","geoLocation":{"latitude":41.5419779,"longitude":2.2135401},"userLang":"es","userLocation":""},
{"id":453948830023958528,"userId":847395026,"createdAt":"09-abr-2014 19:33:29","inReplyToUserId":-1,"text":"La ministra de Cultura d\u0027Anglaterra  dimiteix per 7000 ?. A Espanya \"too er mundo e g?eno\" i no dimiteix ni deu. Harakiri potser?","geoLocation":{"latitude":41.39789576,"longitude":2.19332035},"userLang":"ca","userLocation":"Barcelona - Catalonia - UE"},
{"id":453948861082767361,"userId":45030567,"createdAt":"09-abr-2014 19:33:37","inReplyToUserId":-1,"text":"I\u0027m at Urb16 (Barcelona, CT) http://t.co/OedwcVg02t","geoLocation":{"latitude":41.38667285,"longitude":2.181092},"userLang":"es","userLocation":"Barcelona"},
{"id":453948861217001472,"userId":2350281440,"createdAt":"09-abr-2014 19:33:37","inReplyToUserId":30914064,"text":"@Tony__Aguilar @CloverOficial que bien guardado os lo ten?as eeh os adoro ? #Notici?nCloverEnDel40Al1","geoLocation":{"latitude":41.4764016,"longitude":2.2819203},"userLang":"es","userLocation":"Montgat Nord"},
{"id":453948867021926400,"userId":107147153,"createdAt":"09-abr-2014 19:33:38","inReplyToUserId":-1,"text":"Fco Hdez, @UDAGramenet @laxarxaradio\"L\u0027Ajuntament no ens ajuda, per? lluitarem amb els nostres 90 anys d\u0027hist?ria\". Manda huevos! #futbolcat","userLang":"es","userLocation":""},
{"id":453948868770951168,"userId":195055091,"createdAt":"09-abr-2014 19:33:38","inReplyToUserId":1517566476,"text":"@DinosaurioSuave Bueno pues me tienes a mi y a m?s gente que ahora no pondr? a nombrar pero sola no est?s cielo","geoLocation":{"latitude":41.3871244,"longitude":2.1364305},"userLang":"es","userLocation":"Barcelona"},
{"id":453948875662188544,"userId":278550360,"createdAt":"09-abr-2014 19:33:40","inReplyToUserId":-1,"text":"El primer ministre franc?s, Valls, no defensa una Europa de pobles i ciutadans lliures, vol una UE controlada pels estats, com bon jacob?.","geoLocation":{"latitude":41.7298689,"longitude":1.8301722},"userLang":"ca","userLocation":""},
{"id":453948879680319488,"userId":277170489,"createdAt":"09-abr-2014 19:33:41","inReplyToUserId":-1,"text":"Madre no hay m?s que una y como la m?a ninguna? #felicitatsmama @ Port Ol?mpic http://t.co/XXht0sAqVo","geoLocation":{"latitude":41.38696774,"longitude":2.2001195},"userLang":"es","userLocation":"Barcelona"},
{"id":453948887288774656,"userId":379643542,"createdAt":"09-abr-2014 19:33:43","inReplyToUserId":-1,"text":"?#ig_barcelona #ig_bcn#igers #igersbcn #igersbarcelona #igerscatalunya #clikcat #barna #bcn #barcelona? http://t.co/LnSHxwTUsg","geoLocation":{"latitude":41.38047972,"longitude":2.17028347},"userLang":"es","userLocation":"barcelona"},
{"id":453948920277008386,"userId":155542347,"createdAt":"09-abr-2014 19:33:51","inReplyToUserId":34312352,"text":"@itsmeleighton happy birthday cutie ?","geoLocation":{"latitude":41.37085744,"longitude":2.13990843},"userLang":"en","userLocation":""},
{"id":453948931727441920,"userId":62318228,"createdAt":"09-abr-2014 19:33:53","inReplyToUserId":-1,"text":"Costa ni convocado, el farsa lo tiene hecho","geoLocation":{"latitude":41.3476551,"longitude":2.0289747},"userLang":"es","userLocation":""},
{"id":453948945950326784,"userId":347887458,"createdAt":"09-abr-2014 19:33:57","inReplyToUserId":999785616,"text":"@sptnikk @amaialaputa en realidad no","userLang":"es","userLocation":"Canal Divinity"},
{"id":453948992112848896,"userId":2229221176,"createdAt":"09-abr-2014 19:34:08","inReplyToUserId":1319194854,"text":"@Sometron @ClaudiaG43 io tk desde el subsuelo hasta el l?mite inexistente de la hexosfera","geoLocation":{"latitude":41.3691948,"longitude":2.0966109},"userLang":"ca","userLocation":"En cualquier bosque, Celler"},
{"id":453948997947105280,"userId":7666252,"createdAt":"09-abr-2014 19:34:09","inReplyToUserId":-1,"text":"Tanto Tarot e iluminados en la TDT y nos cierran un buen canal de cine La Sexta 3 #peomoviendoCultura","geoLocation":{"latitude":41.3702765,"longitude":2.1403985},"userLang":"en","userLocation":"Barcelona, Spain"},
{"id":453949004033040384,"userId":124332674,"createdAt":"09-abr-2014 19:34:11","inReplyToUserId":-1,"text":"Sangre fria en la recamara!","geoLocation":{"latitude":41.3806049,"longitude":2.0245217},"userLang":"es","userLocation":"BROKEN SOULS STUDIOS"},
{"id":453949004934819840,"userId":31174174,"createdAt":"09-abr-2014 19:34:11","inReplyToUserId":-1,"text":"Full beach scenes. @ La Playa http://t.co/JIdigxPXyu","geoLocation":{"latitude":41.37643255,"longitude":2.1904032},"userLang":"en","userLocation":""},
{"id":453949018021052416,"userId":253654237,"createdAt":"09-abr-2014 19:34:14","inReplyToUserId":-1,"text":"Comen?a el partit al Palau! @FCBhoquei - @cenoia #fcblive #playhoquei #oklliga","userLang":"es","userLocation":""},
{"id":453949036928974849,"userId":29488772,"createdAt":"09-abr-2014 19:34:19","inReplyToUserId":94994205,"text":"@monica_j0nes Ostias, qu? s?per sorpres?n!!!!! XD, estaba cantado que iban a ir, no s? de qu? se sorprenden.","geoLocation":{"latitude":41.49584977,"longitude":2.18362366},"userLang":"es","userLocation":"Barcelona"},
{"id":453949041148444672,"userId":402157424,"createdAt":"09-abr-2014 19:34:20","inReplyToUserId":-1,"text":"Diego Costa y Arda Turan no juegan esta noche? #FCBlive #fcbatleti http://t.co/HT7n6vB3m0","geoLocation":{"latitude":41.42809179,"longitude":2.16450727},"userLang":"es","userLocation":""},
{"id":453949047221800960,"userId":101024138,"createdAt":"09-abr-2014 19:34:21","inReplyToUserId":-1,"text":"I\u0027m at Pla?a de Catalunya (Barcelona) w/ 9 others http://t.co/XlKEYo9z6q","geoLocation":{"latitude":41.38702409,"longitude":2.16996074},"userLang":"en","userLocation":"Spain"},
{"id":453949070152073216,"userId":942577543,"createdAt":"09-abr-2014 19:34:26","inReplyToUserId":-1,"text":"Hay la ten?is cobrando por sus miserias http://t.co/8aBCeB2iuT","geoLocation":{"latitude":41.622269,"longitude":2.2756021},"userLang":"es","userLocation":"canovellas     Barcelona"},
{"id":453949089315844096,"userId":410670350,"createdAt":"09-abr-2014 19:34:31","inReplyToUserId":-1,"text":"Caf? amb m?sica @ Cafeterapia http://t.co/IUAvazAZy8","geoLocation":{"latitude":41.37548816,"longitude":2.13339175},"userLang":"ca","userLocation":"Hospitalet de Llobregat"},
{"id":453949102003605504,"userId":139048188,"createdAt":"09-abr-2014 19:34:34","inReplyToUserId":960930907,"text":"@dianatrisse #DialogoConJusticia DOS GRANDES ESP?RITUS DE LA @yaneth_11521  ASESINADOS http://t.co/DegqZDwYhj? http://t.co/RORhDIGbV5.","userLang":"es","userLocation":"En la tierra donde nace el sol"},
{"id":453949156139470849,"userId":1006910575,"createdAt":"09-abr-2014 19:34:47","inReplyToUserId":-1,"text":"2 horas telef?nicas que han pasado volando ...con lo m?s mej? @jemily_wtf @pakohernandezsa #mami Venga que s?lo son dos d?as! #cuentaatr?s","userLang":"es","userLocation":"?Flamenco?.. en vena. ?"},
{"id":453949157427134464,"userId":347887458,"createdAt":"09-abr-2014 19:34:47","inReplyToUserId":1733496882,"text":"@lmaoyasslay es que a veces xd","userLang":"es","userLocation":"Canal Divinity"},
{"id":453949167715749888,"userId":870518892,"createdAt":"09-abr-2014 19:34:50","inReplyToUserId":-1,"text":"\"Misi?n Florim?n\" es una parodia hist?rica al estilo de \"La venganza de don Mendo\". Pero en este caso sobre el rey Carlos II, El Hechizado\"","userLang":"es","userLocation":"Miss Alicante 1998"},
{"id":453949177681436673,"userId":31650488,"createdAt":"09-abr-2014 19:34:52","inReplyToUserId":-1,"text":"How to Score Your Website?s SEO in 10 Minutes or Less \u003e  http://t.co/7dijSnpUhJ","geoLocation":{"latitude":41.5049575,"longitude":2.3888737},"userLang":"es","userLocation":"Barcelona"},
{"id":453949178939703297,"userId":259348964,"createdAt":"09-abr-2014 19:34:52","inReplyToUserId":-1,"text":"#DePeque?o ?Qu? graciosos! http://t.co/pWVVEsG2NS","userLang":"es","userLocation":"Barcelona"},
{"id":453949188800524288,"userId":441303662,"createdAt":"09-abr-2014 19:34:55","inReplyToUserId":-1,"text":"Fagocita la immunologia! #immunofacts #biotecxustes","geoLocation":{"latitude":41.49257041,"longitude":2.18547806},"userLang":"ca","userLocation":"Montcada i Reixac"},
{"id":453949195918249984,"userId":395179203,"createdAt":"09-abr-2014 19:34:56","inReplyToUserId":-1,"text":"Ma?ana toca puesta a punto primero con @AnnaSaulo para ultimar la preparaci?n #Ironcat despu?s con @RMZQuirosport para dejar el body #afinao","userLang":"en","userLocation":"Everywhere"},
{"id":453949230181515264,"userId":768373014,"createdAt":"09-abr-2014 19:35:05","inReplyToUserId":79816928,"text":"@Alex__Clover Necesito un abrazo tuyo YAbby.","geoLocation":{"latitude":41.5522568,"longitude":2.1136173},"userLang":"ca","userLocation":"Sabadell/ Mi mundo."},
{"id":453949230923935744,"userId":1384110594,"createdAt":"09-abr-2014 19:35:05","inReplyToUserId":-1,"text":"S?n dos quarts i cinc de vuit del vespre","geoLocation":{"latitude":41.545639,"longitude":1.893817},"userLang":"ca","userLocation":"Olesa de Montserrat"},
{"id":453949234266796033,"userId":155542347,"createdAt":"09-abr-2014 19:35:06","inReplyToUserId":310302921,"text":"@thiscyruspower pero es muy joven para el no?","geoLocation":{"latitude":41.37087263,"longitude":2.13988256},"userLang":"en","userLocation":""},
{"id":453949250683293696,"userId":347887458,"createdAt":"09-abr-2014 19:35:10","inReplyToUserId":999785616,"text":"@sptnikk @amaialaputa POR ESO HE DICHO QUE NO ERA UNA VERDAD ESCONDIDA.","userLang":"es","userLocation":"Canal Divinity"},
{"id":453949298783563776,"userId":1006910575,"createdAt":"09-abr-2014 19:35:21","inReplyToUserId":-1,"text":"Aguita p? los melones.","userLang":"es","userLocation":"?Flamenco?.. en vena. ?"},
{"id":453949302973661184,"userId":416633580,"createdAt":"09-abr-2014 19:35:22","inReplyToUserId":2229221176,"text":"@freixecava @Sometron oooooo pero k cosas mas vonitas me desiis. Ostkmmm.","geoLocation":{"latitude":41.3711058,"longitude":2.086911},"userLang":"es","userLocation":"Barcelona city."},
{"id":453949305444126720,"userId":2333647286,"createdAt":"09-abr-2014 19:35:23","inReplyToUserId":800790266,"text":"@Aubiebstioner muchas gracias :) con que programa lo has echo?","userLang":"es","userLocation":""},
{"id":453949338868527104,"userId":2231584392,"createdAt":"09-abr-2014 19:35:31","inReplyToUserId":2383746126,"text":"@UpdatesVioletta Ah d\u0027accord, merci beaucoup ?","userLang":"fr","userLocation":"France"},
